{
  "name": "GUATEMALA",
  "code": "46",
  "provinces": [
    {
      "name": "Alta Verapaz",
      "code": "243",
      "latitude": 16.0326767,
      "longitude": -89.499582,
      "cities": [
        {
          "name": "Acamal",
          "code": "144973",
          "latitude": 16.0326767,
          "longitude": -89.499582
        },
        {
          "name": "Actelá",
          "code": "144984",
          "latitude": 16.0326767,
          "longitude": -89.499582
        },
        {
          "name": "Agua Caliente",
          "code": "144996",
          "latitude": 14.9365712,
          "longitude": -91.784563
        },
        {
          "name": "Alto Sepacay",
          "code": "145055",
          "latitude": 16.0326767,
          "longitude": -89.499582
        },
        {
          "name": "Aquil",
          "code": "145087",
          "latitude": 16.0326767,
          "longitude": -89.499582
        },
        {
          "name": "Arcopec",
          "code": "145089",
          "latitude": 16.0326767,
          "longitude": -89.499582
        },
        {
          "name": "Astillero Municipal",
          "code": "145105",
          "latitude": 14.69660135,
          "longitude": -90.81321958906848
        },
        {
          "name": "Bancab",
          "code": "145131",
          "latitude": 15.4938851,
          "longitude": -90.2913283
        },
        {
          "name": "Benipec",
          "code": "145173",
          "latitude": 15.3214122,
          "longitude": -90.1036725
        },
        {
          "name": "Benjá Chibut",
          "code": "145174",
          "latitude": 16.0326767,
          "longitude": -89.499582
        },
        {
          "name": "Boloncó",
          "code": "145201",
          "latitude": 15.8479631,
          "longitude": -89.7346412
        },
        {
          "name": "Buena Vista",
          "code": "145224",
          "latitude": 13.8324525,
          "longitude": -90.332423
        },
        {
          "name": "Cacualtzul",
          "code": "145259",
          "latitude": 16.0326767,
          "longitude": -89.499582
        },
        {
          "name": "Cahabón",
          "code": "145263",
          "latitude": 15.606072,
          "longitude": -89.8116704
        },
        {
          "name": "Cahaboncito",
          "code": "145264",
          "latitude": 15.4539982,
          "longitude": -89.5578404
        },
        {
          "name": "Cajux",
          "code": "145271",
          "latitude": 16.0326767,
          "longitude": -89.499582
        },
        {
          "name": "Cambayal",
          "code": "145295",
          "latitude": 16.0326767,
          "longitude": -89.499582
        },
        {
          "name": "Campamac",
          "code": "145303",
          "latitude": 16.0326767,
          "longitude": -89.499582
        },
        {
          "name": "Campamento Petrolero Rubelsant",
          "code": "145305",
          "latitude": 16.0326767,
          "longitude": -89.499582
        },
        {
          "name": "Campanapec",
          "code": "145306",
          "latitude": 16.0326767,
          "longitude": -89.499582
        },
        {
          "name": "Campat",
          "code": "145308",
          "latitude": 16.0326767,
          "longitude": -89.499582
        },
        {
          "name": "Campur",
          "code": "145311",
          "latitude": 15.6333543,
          "longitude": -90.0475185
        },
        {
          "name": "Cananté",
          "code": "145317",
          "latitude": 16.0326767,
          "longitude": -89.499582
        },
        {
          "name": "Cancuén",
          "code": "145325",
          "latitude": 16.0123318,
          "longitude": -90.04325862867478
        },
        {
          "name": "Candelaria",
          "code": "145328",
          "latitude": 14.6620998,
          "longitude": -90.4708755
        },
        {
          "name": "Canlún",
          "code": "145335",
          "latitude": 15.3086891,
          "longitude": -89.7765041
        },
        {
          "name": "Canrujá",
          "code": "145342",
          "latitude": 16.0326767,
          "longitude": -89.499582
        },
        {
          "name": "Cantzum",
          "code": "145354",
          "latitude": 16.0326767,
          "longitude": -89.499582
        },
        {
          "name": "Caquipec",
          "code": "145374",
          "latitude": 16.0326767,
          "longitude": -89.499582
        },
        {
          "name": "Caquitón",
          "code": "145375",
          "latitude": 16.0326767,
          "longitude": -89.499582
        },
        {
          "name": "Carrizal",
          "code": "145386",
          "latitude": 14.9940144,
          "longitude": -91.0369145
        },
        {
          "name": "Cataltzul",
          "code": "145407",
          "latitude": 15.7917437,
          "longitude": -90.2286699
        },
        {
          "name": "Chabilchoch",
          "code": "145464",
          "latitude": 16.0326767,
          "longitude": -89.499582
        },
        {
          "name": "Chahal",
          "code": "145484",
          "latitude": 15.7899372,
          "longitude": -89.6024016
        },
        {
          "name": "Chajbelén",
          "code": "145488",
          "latitude": 15.6037711,
          "longitude": -89.6915889
        },
        {
          "name": "Chajchacán",
          "code": "145489",
          "latitude": 16.0326767,
          "longitude": -89.499582
        },
        {
          "name": "Chajcorech",
          "code": "145490",
          "latitude": 16.0326767,
          "longitude": -89.499582
        },
        {
          "name": "Chajmaic",
          "code": "145493",
          "latitude": 15.7550845,
          "longitude": -89.9432814
        },
        {
          "name": "Chajmaic Cajbón",
          "code": "145494",
          "latitude": 15.8107284,
          "longitude": -89.8791654
        },
        {
          "name": "Chamil",
          "code": "145500",
          "latitude": 15.4117917,
          "longitude": -90.2222165
        },
        {
          "name": "Chamisún",
          "code": "145501",
          "latitude": 16.0326767,
          "longitude": -89.499582
        },
        {
          "name": "Chamtacá",
          "code": "145506",
          "latitude": 16.0326767,
          "longitude": -89.499582
        },
        {
          "name": "Chaquiquiché",
          "code": "145526",
          "latitude": 16.0326767,
          "longitude": -89.499582
        },
        {
          "name": "Chaquirojá",
          "code": "145527",
          "latitude": 16.0326767,
          "longitude": -89.499582
        },
        {
          "name": "Chavacal",
          "code": "145530",
          "latitude": 15.3160065,
          "longitude": -89.845989
        },
        {
          "name": "Chejel",
          "code": "145536",
          "latitude": 16.0326767,
          "longitude": -89.499582
        },
        {
          "name": "Chelac",
          "code": "145539",
          "latitude": 16.0326767,
          "longitude": -89.499582
        },
        {
          "name": "Chiacal",
          "code": "145545",
          "latitude": 16.0326767,
          "longitude": -89.499582
        },
        {
          "name": "Chiacalté",
          "code": "145546",
          "latitude": 15.2755743,
          "longitude": -90.35653
        },
        {
          "name": "Chiachal",
          "code": "145547",
          "latitude": 16.0326767,
          "longitude": -89.499582
        },
        {
          "name": "Chiaján",
          "code": "145549",
          "latitude": 16.0326767,
          "longitude": -89.499582
        },
        {
          "name": "Chicanutz",
          "code": "145566",
          "latitude": 16.0326767,
          "longitude": -89.499582
        },
        {
          "name": "Chicoc",
          "code": "145591",
          "latitude": 16.0326767,
          "longitude": -89.499582
        },
        {
          "name": "Chicojil",
          "code": "145592",
          "latitude": 16.0326767,
          "longitude": -89.499582
        },
        {
          "name": "Chicoyoj",
          "code": "145597",
          "latitude": 16.0326767,
          "longitude": -89.499582
        },
        {
          "name": "Chicuxab",
          "code": "145600",
          "latitude": 16.0326767,
          "longitude": -89.499582
        },
        {
          "name": "Chicuxub",
          "code": "145601",
          "latitude": 16.0326767,
          "longitude": -89.499582
        },
        {
          "name": "Chieljá",
          "code": "145603",
          "latitude": 16.0326767,
          "longitude": -89.499582
        },
        {
          "name": "Chijolom",
          "code": "145610",
          "latitude": 16.0326767,
          "longitude": -89.499582
        },
        {
          "name": "Chijoú",
          "code": "145611",
          "latitude": 16.0326767,
          "longitude": -89.499582
        },
        {
          "name": "Chilatz",
          "code": "145617",
          "latitude": 16.0326767,
          "longitude": -89.499582
        },
        {
          "name": "Chimasayul",
          "code": "145630",
          "latitude": 16.0326767,
          "longitude": -89.499582
        },
        {
          "name": "Chimaxyat",
          "code": "145631",
          "latitude": 16.0326767,
          "longitude": -89.499582
        },
        {
          "name": "Chimelb",
          "code": "145633",
          "latitude": 15.572107,
          "longitude": -90.0324869
        },
        {
          "name": "Chimenjá",
          "code": "145634",
          "latitude": 15.8411209,
          "longitude": -89.5404646
        },
        {
          "name": "Chimolón",
          "code": "145637",
          "latitude": 16.0326767,
          "longitude": -89.499582
        },
        {
          "name": "Chimoté",
          "code": "145638",
          "latitude": 16.0326767,
          "longitude": -89.499582
        },
        {
          "name": "Chimoxán",
          "code": "145639",
          "latitude": 16.0326767,
          "longitude": -89.499582
        },
        {
          "name": "Chimuchuch",
          "code": "145640",
          "latitude": 16.0326767,
          "longitude": -89.499582
        },
        {
          "name": "Chimuy",
          "code": "145644",
          "latitude": 16.0326767,
          "longitude": -89.499582
        },
        {
          "name": "Chinajá",
          "code": "145647",
          "latitude": 15.9672248,
          "longitude": -89.5896377
        },
        {
          "name": "Chinasis",
          "code": "145652",
          "latitude": 16.0326767,
          "longitude": -89.499582
        },
        {
          "name": "Chipajché",
          "code": "145671",
          "latitude": 16.0326767,
          "longitude": -89.499582
        },
        {
          "name": "Chipam",
          "code": "145672",
          "latitude": 16.0326767,
          "longitude": -89.499582
        },
        {
          "name": "Chipap",
          "code": "145673",
          "latitude": 16.0326767,
          "longitude": -89.499582
        },
        {
          "name": "Chipoc",
          "code": "145678",
          "latitude": 16.0326767,
          "longitude": -89.499582
        },
        {
          "name": "Chiqueleu",
          "code": "145681",
          "latitude": 16.0326767,
          "longitude": -89.499582
        },
        {
          "name": "Chiquigüital",
          "code": "145684",
          "latitude": 16.0326767,
          "longitude": -89.499582
        },
        {
          "name": "Chiquip",
          "code": "145692",
          "latitude": 16.0326767,
          "longitude": -89.499582
        },
        {
          "name": "Chirixquitzac",
          "code": "145706",
          "latitude": 16.0326767,
          "longitude": -89.499582
        },
        {
          "name": "Chirreacté",
          "code": "145707",
          "latitude": 16.0326767,
          "longitude": -89.499582
        },
        {
          "name": "Chirreojob",
          "code": "145709",
          "latitude": 16.0326767,
          "longitude": -89.499582
        },
        {
          "name": "Chirrequim",
          "code": "145710",
          "latitude": 16.0326767,
          "longitude": -89.499582
        },
        {
          "name": "Chisec",
          "code": "145716",
          "latitude": 15.8843849,
          "longitude": -90.33855471087907
        },
        {
          "name": "Chisiram",
          "code": "145717",
          "latitude": 15.3190285,
          "longitude": -90.4502732
        },
        {
          "name": "Chisubín",
          "code": "145724",
          "latitude": 15.5578235,
          "longitude": -89.9704877
        },
        {
          "name": "Chitap",
          "code": "145728",
          "latitude": 16.0326767,
          "longitude": -89.499582
        },
        {
          "name": "Chitix",
          "code": "145731",
          "latitude": 16.0326767,
          "longitude": -89.499582
        },
        {
          "name": "Chitoc",
          "code": "145733",
          "latitude": 16.0326767,
          "longitude": -89.499582
        },
        {
          "name": "Chitocán",
          "code": "145734",
          "latitude": 15.6469632,
          "longitude": -90.4018410653917
        },
        {
          "name": "Chitul",
          "code": "145737",
          "latitude": 16.0326767,
          "longitude": -89.499582
        },
        {
          "name": "Chixajau",
          "code": "145747",
          "latitude": 16.0326767,
          "longitude": -89.499582
        },
        {
          "name": "Chiyó",
          "code": "145753",
          "latitude": 16.0326767,
          "longitude": -89.499582
        },
        {
          "name": "Chulac",
          "code": "145846",
          "latitude": 16.0326767,
          "longitude": -89.499582
        },
        {
          "name": "Cobán",
          "code": "145891",
          "latitude": 15.4702001,
          "longitude": -90.3735065
        },
        {
          "name": "Cojaj",
          "code": "145900",
          "latitude": 15.5637858,
          "longitude": -90.1285319
        },
        {
          "name": "Cojcam",
          "code": "145901",
          "latitude": 16.0326767,
          "longitude": -89.499582
        },
        {
          "name": "Coyocté",
          "code": "145976",
          "latitude": 16.0326767,
          "longitude": -89.499582
        },
        {
          "name": "Cubejá",
          "code": "146013",
          "latitude": 16.0326767,
          "longitude": -89.499582
        },
        {
          "name": "Cumbre La Florida",
          "code": "146044",
          "latitude": 16.0326767,
          "longitude": -89.499582
        },
        {
          "name": "Cuxpemech",
          "code": "146052",
          "latitude": 16.0326767,
          "longitude": -89.499582
        },
        {
          "name": "El Achiotal",
          "code": "146079",
          "latitude": 16.3453232,
          "longitude": -90.095036
        },
        {
          "name": "El Azufre",
          "code": "146128",
          "latitude": 16.0326767,
          "longitude": -89.499582
        },
        {
          "name": "El Cuervo",
          "code": "146307",
          "latitude": 16.0326767,
          "longitude": -89.499582
        },
        {
          "name": "El Limón",
          "code": "146426",
          "latitude": 14.3812798,
          "longitude": -89.8025189
        },
        {
          "name": "El Palmar",
          "code": "146528",
          "latitude": 14.69381085,
          "longitude": -91.60183056885774
        },
        {
          "name": "El Rancho",
          "code": "146652",
          "latitude": 14.915999,
          "longitude": -90.0065329
        },
        {
          "name": "Gracias a Dios",
          "code": "146935",
          "latitude": 16.03955805,
          "longitude": -91.74518260365483
        },
        {
          "name": "Gualibaj",
          "code": "146962",
          "latitude": 16.0326767,
          "longitude": -89.499582
        },
        {
          "name": "Hormiguero",
          "code": "147017",
          "latitude": 14.3956372,
          "longitude": -91.2428666
        },
        {
          "name": "Inupal",
          "code": "147045",
          "latitude": 16.0326767,
          "longitude": -89.499582
        },
        {
          "name": "Jacolol",
          "code": "147089",
          "latitude": 16.0326767,
          "longitude": -89.499582
        },
        {
          "name": "Jolobob",
          "code": "147126",
          "latitude": 16.0326767,
          "longitude": -89.499582
        },
        {
          "name": "La Barandilla",
          "code": "147197",
          "latitude": 16.0326767,
          "longitude": -89.499582
        },
        {
          "name": "La Caoba",
          "code": "147226",
          "latitude": 15.9787884,
          "longitude": -89.5613336
        },
        {
          "name": "La Ceiba",
          "code": "147237",
          "latitude": 16.0469658,
          "longitude": -90.1830342
        },
        {
          "name": "La Cumbre",
          "code": "147283",
          "latitude": 15.0361393,
          "longitude": -90.2159119
        },
        {
          "name": "La Isla",
          "code": "147359",
          "latitude": 15.9578665,
          "longitude": -90.0257065
        },
        {
          "name": "La Providencia",
          "code": "147463",
          "latitude": 14.0452595,
          "longitude": -90.1283596
        },
        {
          "name": "La Tinta",
          "code": "147501",
          "latitude": 15.24988485,
          "longitude": -89.83112735911173
        },
        {
          "name": "Lanquín",
          "code": "147570",
          "latitude": 15.5749771,
          "longitude": -89.9807578
        },
        {
          "name": "Las Cadenas",
          "code": "147593",
          "latitude": 16.0326767,
          "longitude": -89.499582
        },
        {
          "name": "Las Conchas",
          "code": "147616",
          "latitude": 15.840813,
          "longitude": -89.453777
        },
        {
          "name": "Las Flores",
          "code": "147655",
          "latitude": 14.6596938,
          "longitude": -90.7560135
        },
        {
          "name": "Las Pacayas",
          "code": "147719",
          "latitude": 15.4106896,
          "longitude": -90.5140506
        },
        {
          "name": "Las Ruinas",
          "code": "147756",
          "latitude": 16.9635835,
          "longitude": -90.6836502
        },
        {
          "name": "Malagueta",
          "code": "148147",
          "latitude": 16.0326767,
          "longitude": -89.499582
        },
        {
          "name": "Manuquib",
          "code": "148161",
          "latitude": 16.0326767,
          "longitude": -89.499582
        },
        {
          "name": "Marichaj",
          "code": "148172",
          "latitude": 16.0326767,
          "longitude": -89.499582
        },
        {
          "name": "Miralvalle",
          "code": "148209",
          "latitude": 14.6308977,
          "longitude": -90.60502193872435
        },
        {
          "name": "Najquitob",
          "code": "148292",
          "latitude": 16.0326767,
          "longitude": -89.499582
        },
        {
          "name": "Nebachaj",
          "code": "148308",
          "latitude": 16.0326767,
          "longitude": -89.499582
        },
        {
          "name": "Pajal",
          "code": "148449",
          "latitude": 14.5662014,
          "longitude": -90.8402932
        },
        {
          "name": "Pampajché",
          "code": "148513",
          "latitude": 16.0326767,
          "longitude": -89.499582
        },
        {
          "name": "Panacté",
          "code": "148521",
          "latitude": 15.3102613,
          "longitude": -89.6006244
        },
        {
          "name": "Pancajché",
          "code": "148535",
          "latitude": 16.0326767,
          "longitude": -89.499582
        },
        {
          "name": "Pancoj",
          "code": "148539",
          "latitude": 15.2840144,
          "longitude": -90.2499336
        },
        {
          "name": "Panzós",
          "code": "148566",
          "latitude": 15.3232265,
          "longitude": -89.66864156769081
        },
        {
          "name": "Papaljá",
          "code": "148570",
          "latitude": 16.0326767,
          "longitude": -89.499582
        },
        {
          "name": "Pasacuc",
          "code": "148599",
          "latitude": 16.0326767,
          "longitude": -89.499582
        },
        {
          "name": "Pasmolón",
          "code": "148610",
          "latitude": 16.0326767,
          "longitude": -89.499582
        },
        {
          "name": "Pecajbá",
          "code": "148680",
          "latitude": 16.0326767,
          "longitude": -89.499582
        },
        {
          "name": "Pinares",
          "code": "148758",
          "latitude": 14.6609111,
          "longitude": -90.4311258
        },
        {
          "name": "Pocolá",
          "code": "148815",
          "latitude": 15.5536736,
          "longitude": -90.2502823
        },
        {
          "name": "Pueblo Viejo",
          "code": "148873",
          "latitude": 15.2941668,
          "longitude": -89.6677816
        },
        {
          "name": "Quimalá",
          "code": "148958",
          "latitude": 16.0326767,
          "longitude": -89.499582
        },
        {
          "name": "Quixal Grande",
          "code": "148968",
          "latitude": 16.0326767,
          "longitude": -89.499582
        },
        {
          "name": "Raudal Grande",
          "code": "148987",
          "latitude": 16.0326767,
          "longitude": -89.499582
        },
        {
          "name": "Raxquix",
          "code": "148990",
          "latitude": 16.0326767,
          "longitude": -89.499582
        },
        {
          "name": "Raxrujá",
          "code": "148991",
          "latitude": 15.8638933,
          "longitude": -90.0416426
        },
        {
          "name": "Rubelchoc",
          "code": "149075",
          "latitude": 16.0326767,
          "longitude": -89.499582
        },
        {
          "name": "Rubelquiché",
          "code": "149078",
          "latitude": 16.0326767,
          "longitude": -89.499582
        },
        {
          "name": "Rubelsaconac",
          "code": "149079",
          "latitude": 16.0326767,
          "longitude": -89.499582
        },
        {
          "name": "Rubeltem",
          "code": "149080",
          "latitude": 16.0326767,
          "longitude": -89.499582
        },
        {
          "name": "Sabob",
          "code": "149093",
          "latitude": 16.0326767,
          "longitude": -89.499582
        },
        {
          "name": "Sacaal",
          "code": "149095",
          "latitude": 16.0326767,
          "longitude": -89.499582
        },
        {
          "name": "Sacanchaj",
          "code": "149099",
          "latitude": 16.0326767,
          "longitude": -89.499582
        },
        {
          "name": "Sacaretché",
          "code": "149101",
          "latitude": 16.0326767,
          "longitude": -89.499582
        },
        {
          "name": "Sachaj",
          "code": "149103",
          "latitude": 16.0326767,
          "longitude": -89.499582
        },
        {
          "name": "Sacocpur",
          "code": "149106",
          "latitude": 16.0326767,
          "longitude": -89.499582
        },
        {
          "name": "Sacoman",
          "code": "149109",
          "latitude": 16.0326767,
          "longitude": -89.499582
        },
        {
          "name": "Saconac",
          "code": "149110",
          "latitude": 16.0326767,
          "longitude": -89.499582
        },
        {
          "name": "Sacquitzimaaj",
          "code": "149114",
          "latitude": 16.0326767,
          "longitude": -89.499582
        },
        {
          "name": "Sacranix",
          "code": "149116",
          "latitude": 15.5123206,
          "longitude": -90.430406
        },
        {
          "name": "Sacristal",
          "code": "149117",
          "latitude": 16.0326767,
          "longitude": -89.499582
        },
        {
          "name": "Sacruz",
          "code": "149118",
          "latitude": 16.0326767,
          "longitude": -89.499582
        },
        {
          "name": "Sacsi",
          "code": "149119",
          "latitude": 16.0326767,
          "longitude": -89.499582
        },
        {
          "name": "Sactá",
          "code": "149122",
          "latitude": 16.0326767,
          "longitude": -89.499582
        },
        {
          "name": "Saguachil",
          "code": "149126",
          "latitude": 16.0326767,
          "longitude": -89.499582
        },
        {
          "name": "Salinas Nueve Cerros",
          "code": "149145",
          "latitude": 16.0326767,
          "longitude": -89.499582
        },
        {
          "name": "Samac",
          "code": "149152",
          "latitude": 15.471598,
          "longitude": -90.4454035
        },
        {
          "name": "Samastún",
          "code": "149154",
          "latitude": 16.0326767,
          "longitude": -89.499582
        },
        {
          "name": "San Antonio",
          "code": "149183",
          "latitude": 14.4734233,
          "longitude": -89.4934415
        },
        {
          "name": "San Bartolomé",
          "code": "149217",
          "latitude": 14.848297,
          "longitude": -91.52870349416423
        },
        {
          "name": "San Cristóbal Verapaz",
          "code": "149241",
          "latitude": 15.383432599999999,
          "longitude": -90.57565636923287
        },
        {
          "name": "San Francisco",
          "code": "149261",
          "latitude": 16.7989153,
          "longitude": -89.9342545
        },
        {
          "name": "San Javier",
          "code": "149309",
          "latitude": 14.637309550000001,
          "longitude": -90.58795255940093
        },
        {
          "name": "San Joaquín",
          "code": "149315",
          "latitude": 15.9631135,
          "longitude": -89.866698
        },
        {
          "name": "San Juan",
          "code": "149365",
          "latitude": 16.6298266,
          "longitude": -89.6034698
        },
        {
          "name": "San Juan Chamelco",
          "code": "149374",
          "latitude": 15.3832579,
          "longitude": -90.23900142886828
        },
        {
          "name": "San Julián",
          "code": "149392",
          "latitude": 17.088713,
          "longitude": -90.6288584
        },
        {
          "name": "San Matías",
          "code": "149441",
          "latitude": 14.2918074,
          "longitude": -89.7460425
        },
        {
          "name": "San Pedro Carchá",
          "code": "149489",
          "latitude": 15.5721191,
          "longitude": -90.20144970489054
        },
        {
          "name": "San Simón",
          "code": "149531",
          "latitude": 13.062737349999999,
          "longitude": -86.00161839601412
        },
        {
          "name": "San Vicente",
          "code": "149533",
          "latitude": 14.8993456,
          "longitude": -89.7463636
        },
        {
          "name": "Santa Ana",
          "code": "149561",
          "latitude": 16.8083382,
          "longitude": -89.8235777
        },
        {
          "name": "Santa Cruz Verapaz",
          "code": "149604",
          "latitude": 15.3397693,
          "longitude": -90.41981861545744
        },
        {
          "name": "Santa Elena",
          "code": "149607",
          "latitude": 16.9130759,
          "longitude": -89.8957291
        },
        {
          "name": "Santa Rosita",
          "code": "149679",
          "latitude": 16.5188414,
          "longitude": -90.6441751
        },
        {
          "name": "Santo Domingo",
          "code": "149694",
          "latitude": 16.4204367,
          "longitude": -89.444302
        },
        {
          "name": "Saquib Segundo",
          "code": "149708",
          "latitude": 16.0326767,
          "longitude": -89.499582
        },
        {
          "name": "Saquijá",
          "code": "149712",
          "latitude": 15.3023371,
          "longitude": -89.6624333
        },
        {
          "name": "Saquiquib",
          "code": "149713",
          "latitude": 16.0326767,
          "longitude": -89.499582
        },
        {
          "name": "Saquixquib",
          "code": "149716",
          "latitude": 16.0326767,
          "longitude": -89.499582
        },
        {
          "name": "Sarraxquén",
          "code": "149722",
          "latitude": 16.0326767,
          "longitude": -89.499582
        },
        {
          "name": "Satexá",
          "code": "149727",
          "latitude": 16.0326767,
          "longitude": -89.499582
        },
        {
          "name": "Seabas",
          "code": "149730",
          "latitude": 16.0326767,
          "longitude": -89.499582
        },
        {
          "name": "Seamay",
          "code": "149731",
          "latitude": 16.0487241,
          "longitude": -89.5034807
        },
        {
          "name": "Searranx",
          "code": "149733",
          "latitude": 16.0326767,
          "longitude": -89.499582
        },
        {
          "name": "Sebach",
          "code": "149736",
          "latitude": 16.0326767,
          "longitude": -89.499582
        },
        {
          "name": "Sebob",
          "code": "149739",
          "latitude": 16.0326767,
          "longitude": -89.499582
        },
        {
          "name": "Sebol",
          "code": "149740",
          "latitude": 15.8039089,
          "longitude": -89.941603
        },
        {
          "name": "Secalá",
          "code": "149742",
          "latitude": 16.0326767,
          "longitude": -89.499582
        },
        {
          "name": "Secampana",
          "code": "149743",
          "latitude": 16.0326767,
          "longitude": -89.499582
        },
        {
          "name": "Secampanac",
          "code": "149744",
          "latitude": 16.0326767,
          "longitude": -89.499582
        },
        {
          "name": "Secanquim",
          "code": "149746",
          "latitude": 16.0326767,
          "longitude": -89.499582
        },
        {
          "name": "Secansín",
          "code": "149747",
          "latitude": 16.0326767,
          "longitude": -89.499582
        },
        {
          "name": "Sechaj",
          "code": "149750",
          "latitude": 15.8857079,
          "longitude": -90.169106
        },
        {
          "name": "Sechinacté",
          "code": "149752",
          "latitude": 16.0326767,
          "longitude": -89.499582
        },
        {
          "name": "Sechiquito",
          "code": "149753",
          "latitude": 16.0326767,
          "longitude": -89.499582
        },
        {
          "name": "Secocbol",
          "code": "149755",
          "latitude": 15.9208457,
          "longitude": -89.8370004
        },
        {
          "name": "Secocpur",
          "code": "149756",
          "latitude": 15.7142582,
          "longitude": -90.4242257
        },
        {
          "name": "Secomococh",
          "code": "149757",
          "latitude": 16.0326767,
          "longitude": -89.499582
        },
        {
          "name": "Secomontul",
          "code": "149758",
          "latitude": 16.0326767,
          "longitude": -89.499582
        },
        {
          "name": "Secomuxán",
          "code": "149759",
          "latitude": 16.0326767,
          "longitude": -89.499582
        },
        {
          "name": "Seconón",
          "code": "149760",
          "latitude": 16.0326767,
          "longitude": -89.499582
        },
        {
          "name": "Secoró",
          "code": "149761",
          "latitude": 16.0326767,
          "longitude": -89.499582
        },
        {
          "name": "Secoyoucoch",
          "code": "149764",
          "latitude": 16.0326767,
          "longitude": -89.499582
        },
        {
          "name": "Secruzyac",
          "code": "149765",
          "latitude": 16.0326767,
          "longitude": -89.499582
        },
        {
          "name": "Secuabón",
          "code": "149766",
          "latitude": 16.0326767,
          "longitude": -89.499582
        },
        {
          "name": "Seguachil",
          "code": "149767",
          "latitude": 16.0326767,
          "longitude": -89.499582
        },
        {
          "name": "Seguamó",
          "code": "149768",
          "latitude": 16.0326767,
          "longitude": -89.499582
        },
        {
          "name": "Seguolguol",
          "code": "149769",
          "latitude": 16.0326767,
          "longitude": -89.499582
        },
        {
          "name": "Sejabás",
          "code": "149771",
          "latitude": 16.0326767,
          "longitude": -89.499582
        },
        {
          "name": "Sejalauté",
          "code": "149772",
          "latitude": 16.0326767,
          "longitude": -89.499582
        },
        {
          "name": "Sejauté",
          "code": "149773",
          "latitude": 16.0326767,
          "longitude": -89.499582
        },
        {
          "name": "Sejix",
          "code": "149774",
          "latitude": 16.0326767,
          "longitude": -89.499582
        },
        {
          "name": "Selauté",
          "code": "149775",
          "latitude": 16.0326767,
          "longitude": -89.499582
        },
        {
          "name": "Semac",
          "code": "149777",
          "latitude": 16.0326767,
          "longitude": -89.499582
        },
        {
          "name": "Semar",
          "code": "149780",
          "latitude": 16.0326767,
          "longitude": -89.499582
        },
        {
          "name": "Semil",
          "code": "149783",
          "latitude": 16.0326767,
          "longitude": -89.499582
        },
        {
          "name": "Semococh",
          "code": "149784",
          "latitude": 15.301116050000001,
          "longitude": -89.4803460412145
        },
        {
          "name": "Semox",
          "code": "149785",
          "latitude": 15.8202147,
          "longitude": -89.1650577
        },
        {
          "name": "Semuc",
          "code": "149787",
          "latitude": 16.065463,
          "longitude": -89.2919086
        },
        {
          "name": "Semuy",
          "code": "149789",
          "latitude": 15.7891259,
          "longitude": -90.3919666
        },
        {
          "name": "Senahú",
          "code": "149790",
          "latitude": 15.4386527,
          "longitude": -89.8091517686214
        },
        {
          "name": "Sencaal",
          "code": "149791",
          "latitude": 16.0326767,
          "longitude": -89.499582
        },
        {
          "name": "Sepacuité",
          "code": "149793",
          "latitude": 16.0326767,
          "longitude": -89.499582
        },
        {
          "name": "Sepatá",
          "code": "149794",
          "latitude": 16.0326767,
          "longitude": -89.499582
        },
        {
          "name": "Sepoc",
          "code": "149797",
          "latitude": 15.602683,
          "longitude": -89.7295149
        },
        {
          "name": "Sepojxic",
          "code": "149798",
          "latitude": 16.0326767,
          "longitude": -89.499582
        },
        {
          "name": "Sepur",
          "code": "149799",
          "latitude": 16.296559,
          "longitude": -90.144099
        },
        {
          "name": "Sequilá",
          "code": "149800",
          "latitude": 16.0326767,
          "longitude": -89.499582
        },
        {
          "name": "Sequixché",
          "code": "149802",
          "latitude": 16.0326767,
          "longitude": -89.499582
        },
        {
          "name": "Sequixpec",
          "code": "149803",
          "latitude": 16.0326767,
          "longitude": -89.499582
        },
        {
          "name": "Sequixpur",
          "code": "149804",
          "latitude": 15.8417504,
          "longitude": -90.4146441
        },
        {
          "name": "Sequixquib",
          "code": "149805",
          "latitude": 15.9448188,
          "longitude": -89.6586794
        },
        {
          "name": "Serocalam",
          "code": "149807",
          "latitude": 16.0326767,
          "longitude": -89.499582
        },
        {
          "name": "Serraxic",
          "code": "149808",
          "latitude": 16.0326767,
          "longitude": -89.499582
        },
        {
          "name": "Sesab",
          "code": "149809",
          "latitude": 15.5655635,
          "longitude": -90.4350945
        },
        {
          "name": "Sesacar",
          "code": "149810",
          "latitude": 16.0326767,
          "longitude": -89.499582
        },
        {
          "name": "Sesajal",
          "code": "149812",
          "latitude": 15.7277501,
          "longitude": -90.2071594
        },
        {
          "name": "Sesaltul",
          "code": "149813",
          "latitude": 16.38001675,
          "longitude": -89.8403473715592
        },
        {
          "name": "Sesapec",
          "code": "149814",
          "latitude": 16.0326767,
          "longitude": -89.499582
        },
        {
          "name": "Sesaquiquib",
          "code": "149815",
          "latitude": 16.0326767,
          "longitude": -89.499582
        },
        {
          "name": "Seseb",
          "code": "149816",
          "latitude": 15.5629293,
          "longitude": -89.9585921
        },
        {
          "name": "Sesoch",
          "code": "149818",
          "latitude": 16.0326767,
          "longitude": -89.499582
        },
        {
          "name": "Sesuchaj",
          "code": "149819",
          "latitude": 15.7389528,
          "longitude": -90.2370072
        },
        {
          "name": "Sesutzuj",
          "code": "149820",
          "latitude": 16.0326767,
          "longitude": -89.499582
        },
        {
          "name": "Setoc",
          "code": "149821",
          "latitude": 15.9356507,
          "longitude": -89.7719245
        },
        {
          "name": "Setul",
          "code": "149822",
          "latitude": 16.1497562,
          "longitude": -89.3231686
        },
        {
          "name": "Setzacpec",
          "code": "149824",
          "latitude": 15.5366394,
          "longitude": -89.672792
        },
        {
          "name": "Setzí",
          "code": "149825",
          "latitude": 16.0326767,
          "longitude": -89.499582
        },
        {
          "name": "Setzimaj",
          "code": "149826",
          "latitude": 16.0326767,
          "longitude": -89.499582
        },
        {
          "name": "Setzol",
          "code": "149827",
          "latitude": 16.0326767,
          "longitude": -89.499582
        },
        {
          "name": "Setzuc",
          "code": "149828",
          "latitude": 16.0326767,
          "longitude": -89.499582
        },
        {
          "name": "Seubub",
          "code": "149829",
          "latitude": 16.0326767,
          "longitude": -89.499582
        },
        {
          "name": "Sibicté",
          "code": "149842",
          "latitude": 16.0326767,
          "longitude": -89.499582
        },
        {
          "name": "Sisbaljá",
          "code": "149866",
          "latitude": 16.0326767,
          "longitude": -89.499582
        },
        {
          "name": "Soledad",
          "code": "149874",
          "latitude": 15.4709592,
          "longitude": -92.0387229
        },
        {
          "name": "Sonté",
          "code": "149881",
          "latitude": 16.0326767,
          "longitude": -89.499582
        },
        {
          "name": "Soselá",
          "code": "149883",
          "latitude": 16.0531852,
          "longitude": -89.6135404
        },
        {
          "name": "Sucum",
          "code": "149896",
          "latitude": 16.0326767,
          "longitude": -89.499582
        },
        {
          "name": "Suquix",
          "code": "149904",
          "latitude": 16.0326767,
          "longitude": -89.499582
        },
        {
          "name": "Tactic",
          "code": "149924",
          "latitude": 15.3050879,
          "longitude": -90.34453508403102
        },
        {
          "name": "Tamahú",
          "code": "149946",
          "latitude": 15.2959017,
          "longitude": -90.23923919238133
        },
        {
          "name": "Tampoc",
          "code": "149951",
          "latitude": 16.0326767,
          "longitude": -89.499582
        },
        {
          "name": "Tanchí",
          "code": "149952",
          "latitude": 16.0326767,
          "longitude": -89.499582
        },
        {
          "name": "Taquincó",
          "code": "149965",
          "latitude": 16.0326767,
          "longitude": -89.499582
        },
        {
          "name": "Telemán",
          "code": "149988",
          "latitude": 15.3400301,
          "longitude": -89.7379035
        },
        {
          "name": "Tinajas",
          "code": "150040",
          "latitude": 14.5575582,
          "longitude": -90.5011794
        },
        {
          "name": "Tintaché",
          "code": "150041",
          "latitude": 16.0326767,
          "longitude": -89.499582
        },
        {
          "name": "Tocolá",
          "code": "150062",
          "latitude": 16.0326767,
          "longitude": -89.499582
        },
        {
          "name": "Tomtem",
          "code": "150082",
          "latitude": 16.0326767,
          "longitude": -89.499582
        },
        {
          "name": "Tonicoj",
          "code": "150085",
          "latitude": 16.0326767,
          "longitude": -89.499582
        },
        {
          "name": "Transvaal",
          "code": "150093",
          "latitude": 16.0326767,
          "longitude": -89.499582
        },
        {
          "name": "Trece Aguas",
          "code": "150102",
          "latitude": 16.0753072,
          "longitude": -89.8139263
        },
        {
          "name": "Tucurú",
          "code": "150119",
          "latitude": 15.307509,
          "longitude": -90.07014855188365
        },
        {
          "name": "Tuilá",
          "code": "150125",
          "latitude": 15.9443278,
          "longitude": -89.6395637
        },
        {
          "name": "Tupulcán",
          "code": "150150",
          "latitude": 16.0326767,
          "longitude": -89.499582
        },
        {
          "name": "Tusam",
          "code": "150152",
          "latitude": 16.0326767,
          "longitude": -89.499582
        },
        {
          "name": "Tzalamtum",
          "code": "150160",
          "latitude": 16.0326767,
          "longitude": -89.499582
        },
        {
          "name": "Ulpán",
          "code": "150191",
          "latitude": 15.9202314,
          "longitude": -89.8017065
        },
        {
          "name": "Volcán",
          "code": "150263",
          "latitude": 14.7570687,
          "longitude": -91.5521301
        },
        {
          "name": "Xicacao",
          "code": "150376",
          "latitude": 16.0326767,
          "longitude": -89.499582
        },
        {
          "name": "Xucaneb",
          "code": "150401",
          "latitude": 15.366136,
          "longitude": -90.3416705
        },
        {
          "name": "Xuctzul",
          "code": "150402",
          "latitude": 15.8905218,
          "longitude": -90.243989
        },
        {
          "name": "Yabalquix",
          "code": "150409",
          "latitude": 16.0326767,
          "longitude": -89.499582
        },
        {
          "name": "Yalchactí",
          "code": "150415",
          "latitude": 15.7753527,
          "longitude": -90.5952144
        },
        {
          "name": "Yalicoc",
          "code": "150416",
          "latitude": 15.7934313,
          "longitude": -89.9631694
        },
        {
          "name": "Yalipur",
          "code": "150417",
          "latitude": 16.0326767,
          "longitude": -89.499582
        },
        {
          "name": "Yalpemech",
          "code": "150419",
          "latitude": 15.9437981,
          "longitude": -90.1279818
        },
        {
          "name": "Yaxá",
          "code": "150425",
          "latitude": 16.0326767,
          "longitude": -89.499582
        },
        {
          "name": "Yaxtunjá",
          "code": "150427",
          "latitude": 16.0326767,
          "longitude": -89.499582
        },
        {
          "name": "Yiquiché",
          "code": "150435",
          "latitude": 16.0326767,
          "longitude": -89.499582
        }
      ]
    },
    {
      "name": "Baja Verapaz",
      "code": "244",
      "latitude": 16.0326767,
      "longitude": -89.499582,
      "cities": [
        {
          "name": "Agua Caliente",
          "code": "145001",
          "latitude": 14.9365712,
          "longitude": -91.784563
        },
        {
          "name": "Agua Tibia",
          "code": "145027",
          "latitude": 15.078141,
          "longitude": -91.7597812
        },
        {
          "name": "Balamché",
          "code": "145125",
          "latitude": 16.0326767,
          "longitude": -89.499582
        },
        {
          "name": "Buen Retiro",
          "code": "145218",
          "latitude": 16.672219,
          "longitude": -89.6968246
        },
        {
          "name": "Buena Vista",
          "code": "145221",
          "latitude": 13.8324525,
          "longitude": -90.332423
        },
        {
          "name": "Cabrera",
          "code": "145250",
          "latitude": 14.59189595,
          "longitude": -90.50955854214271
        },
        {
          "name": "Cachil",
          "code": "145258",
          "latitude": 15.1405579,
          "longitude": -90.2969164
        },
        {
          "name": "Camalmapa",
          "code": "145285",
          "latitude": 16.0326767,
          "longitude": -89.499582
        },
        {
          "name": "Canchún",
          "code": "145323",
          "latitude": 16.0326767,
          "longitude": -89.499582
        },
        {
          "name": "Casas Viejas",
          "code": "145402",
          "latitude": 14.8614785,
          "longitude": -90.0709391
        },
        {
          "name": "Chavá",
          "code": "145529",
          "latitude": 16.0326767,
          "longitude": -89.499582
        },
        {
          "name": "Chiac",
          "code": "145544",
          "latitude": 16.0326767,
          "longitude": -89.499582
        },
        {
          "name": "Chicholom",
          "code": "145584",
          "latitude": 16.0326767,
          "longitude": -89.499582
        },
        {
          "name": "Chichupac",
          "code": "145587",
          "latitude": 16.0326767,
          "longitude": -89.499582
        },
        {
          "name": "Chichuxtín",
          "code": "145588",
          "latitude": 16.0326767,
          "longitude": -89.499582
        },
        {
          "name": "Chilascó",
          "code": "145616",
          "latitude": 15.122195,
          "longitude": -90.1161177
        },
        {
          "name": "Chirrum",
          "code": "145711",
          "latitude": 16.0326767,
          "longitude": -89.499582
        },
        {
          "name": "Chirrumán",
          "code": "145712",
          "latitude": 16.0326767,
          "longitude": -89.499582
        },
        {
          "name": "Chisantiago",
          "code": "145714",
          "latitude": 16.0326767,
          "longitude": -89.499582
        },
        {
          "name": "Chitanil",
          "code": "145727",
          "latitude": 16.0326767,
          "longitude": -89.499582
        },
        {
          "name": "Chiticoy",
          "code": "145730",
          "latitude": 15.0761951,
          "longitude": -90.4688376
        },
        {
          "name": "Chitucán",
          "code": "145736",
          "latitude": 16.0326767,
          "longitude": -89.499582
        },
        {
          "name": "Chiúl",
          "code": "145742",
          "latitude": 15.3456862,
          "longitude": -91.0853279
        },
        {
          "name": "Chivac",
          "code": "145745",
          "latitude": 14.9282505,
          "longitude": -90.4209235
        },
        {
          "name": "Chuachuacalté",
          "code": "145784",
          "latitude": 16.0326767,
          "longitude": -89.499582
        },
        {
          "name": "Chuacús",
          "code": "145787",
          "latitude": 14.9016176,
          "longitude": -90.3181054
        },
        {
          "name": "Chuacusito",
          "code": "145788",
          "latitude": 16.0326767,
          "longitude": -89.499582
        },
        {
          "name": "Chuapec",
          "code": "145793",
          "latitude": 16.0326767,
          "longitude": -89.499582
        },
        {
          "name": "Chumumús",
          "code": "145854",
          "latitude": 16.0326767,
          "longitude": -89.499582
        },
        {
          "name": "Chupadero",
          "code": "145856",
          "latitude": 15.1601865,
          "longitude": -89.3221977
        },
        {
          "name": "Chupadero Chuacús",
          "code": "145858",
          "latitude": 16.0326767,
          "longitude": -89.499582
        },
        {
          "name": "Ciénaga Larga",
          "code": "145875",
          "latitude": 16.0326767,
          "longitude": -89.499582
        },
        {
          "name": "Concuá",
          "code": "145949",
          "latitude": 14.8596637,
          "longitude": -90.593605
        },
        {
          "name": "Concul",
          "code": "145950",
          "latitude": 16.0326767,
          "longitude": -89.499582
        },
        {
          "name": "Conculito",
          "code": "145951",
          "latitude": 16.0326767,
          "longitude": -89.499582
        },
        {
          "name": "Coyol Seco",
          "code": "145977",
          "latitude": 16.0326767,
          "longitude": -89.499582
        },
        {
          "name": "Cubulco",
          "code": "146015",
          "latitude": 15.1037494,
          "longitude": -90.6290718
        },
        {
          "name": "Cumbre del Carpintero",
          "code": "146043",
          "latitude": 15.2252812,
          "longitude": -90.2175272
        },
        {
          "name": "Dolores",
          "code": "146061",
          "latitude": 16.5117548,
          "longitude": -89.4161216
        },
        {
          "name": "El Aguacate",
          "code": "146084",
          "latitude": 15.5283491,
          "longitude": -91.9243133
        },
        {
          "name": "El Amate",
          "code": "146101",
          "latitude": 14.630692849999999,
          "longitude": -90.51681222594834
        },
        {
          "name": "El Amatillo",
          "code": "146104",
          "latitude": 14.1769389,
          "longitude": -90.0817045
        },
        {
          "name": "El Anono",
          "code": "146110",
          "latitude": 14.9320344,
          "longitude": -90.4152703
        },
        {
          "name": "El Apazote",
          "code": "146111",
          "latitude": 16.0326767,
          "longitude": -89.499582
        },
        {
          "name": "El Astillero",
          "code": "146126",
          "latitude": 14.1802706,
          "longitude": -90.8433086
        },
        {
          "name": "El Cacao",
          "code": "146153",
          "latitude": 15.5801532,
          "longitude": -88.4417886
        },
        {
          "name": "El Camote",
          "code": "146166",
          "latitude": 16.0326767,
          "longitude": -89.499582
        },
        {
          "name": "El Capucalito",
          "code": "146173",
          "latitude": 16.0326767,
          "longitude": -89.499582
        },
        {
          "name": "El Carmen",
          "code": "146183",
          "latitude": 14.9643409,
          "longitude": -92.1415604
        },
        {
          "name": "El Carrizal",
          "code": "146190",
          "latitude": 15.2320972,
          "longitude": -90.7948586
        },
        {
          "name": "El Chagüite",
          "code": "146228",
          "latitude": 14.3729957,
          "longitude": -90.047636
        },
        {
          "name": "El Chaparro",
          "code": "146231",
          "latitude": 14.9670165,
          "longitude": -89.5423912
        },
        {
          "name": "El Chol",
          "code": "146253",
          "latitude": 14.9605717,
          "longitude": -90.4877093
        },
        {
          "name": "El Chupadero",
          "code": "146260",
          "latitude": 15.1601865,
          "longitude": -89.3221977
        },
        {
          "name": "El Ciruelillo",
          "code": "146270",
          "latitude": 16.0326767,
          "longitude": -89.499582
        },
        {
          "name": "El Colmenar",
          "code": "146280",
          "latitude": 16.0326767,
          "longitude": -89.499582
        },
        {
          "name": "El Conacaste",
          "code": "146286",
          "latitude": 14.9704364,
          "longitude": -90.0460321
        },
        {
          "name": "El Cuje",
          "code": "146311",
          "latitude": 14.1078041,
          "longitude": -90.2213043
        },
        {
          "name": "El Divisadero",
          "code": "146318",
          "latitude": 16.0326767,
          "longitude": -89.499582
        },
        {
          "name": "El Durazno",
          "code": "146325",
          "latitude": 14.476185,
          "longitude": -90.494079
        },
        {
          "name": "El Guachipilín",
          "code": "146355",
          "latitude": 14.2710586,
          "longitude": -90.8925641
        },
        {
          "name": "El Guapinol",
          "code": "146358",
          "latitude": 14.8219291,
          "longitude": -91.9797438
        },
        {
          "name": "El Jícaro",
          "code": "146393",
          "latitude": 14.2731601,
          "longitude": -90.0655125
        },
        {
          "name": "El Jute",
          "code": "146413",
          "latitude": 14.9793732,
          "longitude": -89.8228271
        },
        {
          "name": "El Nance",
          "code": "146492",
          "latitude": 16.0326767,
          "longitude": -89.499582
        },
        {
          "name": "El Oratorio",
          "code": "146516",
          "latitude": 16.0326767,
          "longitude": -89.499582
        },
        {
          "name": "El Paujil",
          "code": "146560",
          "latitude": 16.0326767,
          "longitude": -89.499582
        },
        {
          "name": "El Peñasco",
          "code": "146568",
          "latitude": 14.853348,
          "longitude": -90.3986598
        },
        {
          "name": "El Piñonal",
          "code": "146594",
          "latitude": 16.0326767,
          "longitude": -89.499582
        },
        {
          "name": "El Pizote",
          "code": "146597",
          "latitude": 16.0326767,
          "longitude": -89.499582
        },
        {
          "name": "El Progreso",
          "code": "146626",
          "latitude": 14.910043649999999,
          "longitude": -90.06827279213266
        },
        {
          "name": "El Quequexcal",
          "code": "146641",
          "latitude": 16.0326767,
          "longitude": -89.499582
        },
        {
          "name": "El Rancho",
          "code": "146649",
          "latitude": 14.915999,
          "longitude": -90.0065329
        },
        {
          "name": "El Reguero",
          "code": "146662",
          "latitude": 16.0326767,
          "longitude": -89.499582
        },
        {
          "name": "El Retiro",
          "code": "146674",
          "latitude": 14.8451348,
          "longitude": -91.9508055
        },
        {
          "name": "El Rodeo",
          "code": "146696",
          "latitude": 14.3922389,
          "longitude": -90.8318777
        },
        {
          "name": "El Saral",
          "code": "146728",
          "latitude": 14.1104903,
          "longitude": -89.7714114
        },
        {
          "name": "El Tabloncito",
          "code": "146773",
          "latitude": 14.52642745,
          "longitude": -90.57824213955573
        },
        {
          "name": "El Tempisque",
          "code": "146788",
          "latitude": 16.0326767,
          "longitude": -89.499582
        },
        {
          "name": "El Terrero",
          "code": "146790",
          "latitude": 14.9069666,
          "longitude": -90.3544486
        },
        {
          "name": "El Trapichito",
          "code": "146815",
          "latitude": 14.7137809,
          "longitude": -90.3086472
        },
        {
          "name": "El Zapote",
          "code": "146832",
          "latitude": 14.0854365,
          "longitude": -90.2314309
        },
        {
          "name": "El Zapotillo",
          "code": "146844",
          "latitude": 14.2498461,
          "longitude": -90.2036387
        },
        {
          "name": "Estancia de García",
          "code": "146889",
          "latitude": 16.0326767,
          "longitude": -89.499582
        },
        {
          "name": "Estancia Grande",
          "code": "146894",
          "latitude": 14.842161,
          "longitude": -90.6008872
        },
        {
          "name": "Granados",
          "code": "146945",
          "latitude": 14.9393637,
          "longitude": -90.57539660025841
        },
        {
          "name": "Guaynep",
          "code": "146986",
          "latitude": 16.0326767,
          "longitude": -89.499582
        },
        {
          "name": "Ixcayán",
          "code": "147058",
          "latitude": 16.0326767,
          "longitude": -89.499582
        },
        {
          "name": "Ixchel",
          "code": "147059",
          "latitude": 14.5608688,
          "longitude": -90.7372730243077
        },
        {
          "name": "La Canoa",
          "code": "147224",
          "latitude": 14.9163181,
          "longitude": -90.3992307
        },
        {
          "name": "La Ciénaga",
          "code": "147250",
          "latitude": 14.7285261,
          "longitude": -90.5831605
        },
        {
          "name": "La Concepción",
          "code": "147262",
          "latitude": 14.8608407,
          "longitude": -90.6885338
        },
        {
          "name": "La Cumbre",
          "code": "147282",
          "latitude": 16.0774656,
          "longitude": -89.3493691
        },
        {
          "name": "La Estanzuela",
          "code": "147326",
          "latitude": 16.0326767,
          "longitude": -89.499582
        },
        {
          "name": "La Huerta",
          "code": "147353",
          "latitude": 38.8743407,
          "longitude": -6.9824817
        },
        {
          "name": "La Laguna",
          "code": "147378",
          "latitude": 15.7699364,
          "longitude": -91.852019
        },
        {
          "name": "La Lima",
          "code": "147398",
          "latitude": 14.9054529,
          "longitude": -92.0250142
        },
        {
          "name": "La Paz",
          "code": "147439",
          "latitude": 14.6348576,
          "longitude": -90.1183633
        },
        {
          "name": "La Tejera",
          "code": "147497",
          "latitude": 15.5641282,
          "longitude": -91.7452651
        },
        {
          "name": "La Unión Barrios",
          "code": "147518",
          "latitude": 16.0326767,
          "longitude": -89.499582
        },
        {
          "name": "Lacandón",
          "code": "147536",
          "latitude": 17.1302815,
          "longitude": -91.1712241
        },
        {
          "name": "Las Anonas",
          "code": "147577",
          "latitude": 14.9054685,
          "longitude": -89.8525375
        },
        {
          "name": "Las Azucenas",
          "code": "147583",
          "latitude": 16.0326767,
          "longitude": -89.499582
        },
        {
          "name": "Las Burras",
          "code": "147589",
          "latitude": 14.41992,
          "longitude": -89.4285552
        },
        {
          "name": "Las Cañas",
          "code": "147600",
          "latitude": 15.0100881,
          "longitude": -89.3332511
        },
        {
          "name": "Las Colmenas",
          "code": "147615",
          "latitude": 14.47364815,
          "longitude": -90.49099976714346
        },
        {
          "name": "Las Cuevas",
          "code": "147629",
          "latitude": 15.9497349,
          "longitude": -89.3677115
        },
        {
          "name": "Las Cuevas de Llano Grande",
          "code": "147631",
          "latitude": 16.0326767,
          "longitude": -89.499582
        },
        {
          "name": "Las Cuevas de Saltán",
          "code": "147632",
          "latitude": 14.9649975,
          "longitude": -90.6508541
        },
        {
          "name": "Las Cureñas",
          "code": "147633",
          "latitude": 14.9514449,
          "longitude": -90.3924877
        },
        {
          "name": "Las Dantas",
          "code": "147634",
          "latitude": 16.0326767,
          "longitude": -89.499582
        },
        {
          "name": "Las Escobas",
          "code": "147644",
          "latitude": 13.9835232,
          "longitude": -90.0079911
        },
        {
          "name": "Las Golondrinas",
          "code": "147659",
          "latitude": 14.3041233,
          "longitude": -90.7756296
        },
        {
          "name": "Las Limas",
          "code": "147681",
          "latitude": 15.3196135,
          "longitude": -90.5361348
        },
        {
          "name": "Las Palmas",
          "code": "147722",
          "latitude": 14.3390694,
          "longitude": -90.9568711
        },
        {
          "name": "Las Piedras",
          "code": "147730",
          "latitude": 14.871169,
          "longitude": -90.6708795
        },
        {
          "name": "Las Tapias",
          "code": "147763",
          "latitude": 14.5849683,
          "longitude": -90.7353652
        },
        {
          "name": "Las Tejas",
          "code": "147764",
          "latitude": 14.9278566,
          "longitude": -90.3850257
        },
        {
          "name": "Las Tintas",
          "code": "147765",
          "latitude": 16.0326767,
          "longitude": -89.499582
        },
        {
          "name": "Las Vainillas",
          "code": "147773",
          "latitude": 16.0326767,
          "longitude": -89.499582
        },
        {
          "name": "Las Vegas",
          "code": "147777",
          "latitude": 14.5333851,
          "longitude": -90.5875071
        },
        {
          "name": "Las Vegas de San Luis",
          "code": "147778",
          "latitude": 16.0326767,
          "longitude": -89.499582
        },
        {
          "name": "Las Ventanas",
          "code": "147781",
          "latitude": 14.5722704,
          "longitude": -90.485912
        },
        {
          "name": "Las Vigas",
          "code": "147785",
          "latitude": 16.0326767,
          "longitude": -89.499582
        },
        {
          "name": "Llano Grande",
          "code": "147833",
          "latitude": 14.266435,
          "longitude": -90.1458382
        },
        {
          "name": "Lo de Orrego",
          "code": "147857",
          "latitude": 16.0326767,
          "longitude": -89.499582
        },
        {
          "name": "Lo de Ortiz",
          "code": "147858",
          "latitude": 16.0326767,
          "longitude": -89.499582
        },
        {
          "name": "Lo de Reyes",
          "code": "147859",
          "latitude": 14.7305715,
          "longitude": -90.4459367
        },
        {
          "name": "Los Algodones",
          "code": "147889",
          "latitude": 16.0326767,
          "longitude": -89.499582
        },
        {
          "name": "Los Amates",
          "code": "147896",
          "latitude": 15.2553293,
          "longitude": -89.0952899
        },
        {
          "name": "Los Ángeles",
          "code": "147903",
          "latitude": 13.9563797,
          "longitude": -90.957415
        },
        {
          "name": "Los Cerritos",
          "code": "147924",
          "latitude": 15.5690164,
          "longitude": -90.7394815
        },
        {
          "name": "Los Cimientos",
          "code": "147944",
          "latitude": 14.6894507,
          "longitude": -89.6362656
        },
        {
          "name": "Los Corralitos",
          "code": "147954",
          "latitude": 16.0326767,
          "longitude": -89.499582
        },
        {
          "name": "Los Cuervos",
          "code": "147958",
          "latitude": 15.5185681,
          "longitude": -91.5447729
        },
        {
          "name": "Los Encuentros",
          "code": "147962",
          "latitude": 14.5561267,
          "longitude": -92.0296038
        },
        {
          "name": "Los Jobos",
          "code": "147996",
          "latitude": 16.0326767,
          "longitude": -89.499582
        },
        {
          "name": "Los Jocotes",
          "code": "147998",
          "latitude": 16.0326767,
          "longitude": -89.499582
        },
        {
          "name": "Los Limones",
          "code": "148005",
          "latitude": 15.1197422,
          "longitude": -89.3379071
        },
        {
          "name": "Los Lochuyes",
          "code": "148013",
          "latitude": 14.9263166,
          "longitude": -90.4761991
        },
        {
          "name": "Los Magueyes",
          "code": "148017",
          "latitude": 14.5692698,
          "longitude": -89.7564179
        },
        {
          "name": "Los Paxtes",
          "code": "148037",
          "latitude": 16.0326767,
          "longitude": -89.499582
        },
        {
          "name": "Los Pinos",
          "code": "148039",
          "latitude": 14.6007566,
          "longitude": -89.9781239
        },
        {
          "name": "Los Pozos",
          "code": "148057",
          "latitude": 14.475089,
          "longitude": -89.5116609
        },
        {
          "name": "Majadas",
          "code": "148135",
          "latitude": 14.2644039,
          "longitude": -89.8819184
        },
        {
          "name": "Maneadero",
          "code": "148158",
          "latitude": 16.0326767,
          "longitude": -89.499582
        },
        {
          "name": "Matanzas",
          "code": "148181",
          "latitude": 15.1050762,
          "longitude": -90.1921555
        },
        {
          "name": "Matasano",
          "code": "148184",
          "latitude": 15.1731072,
          "longitude": -91.5566361
        },
        {
          "name": "Mocohán",
          "code": "148220",
          "latitude": 15.2445245,
          "longitude": -90.2593357
        },
        {
          "name": "Mojón Panimá",
          "code": "148227",
          "latitude": 16.0326767,
          "longitude": -89.499582
        },
        {
          "name": "Nance Dulce",
          "code": "148293",
          "latitude": 16.0326767,
          "longitude": -89.499582
        },
        {
          "name": "Neocopote",
          "code": "148313",
          "latitude": 16.0326767,
          "longitude": -89.499582
        },
        {
          "name": "Nimacabaj",
          "code": "148317",
          "latitude": 16.0326767,
          "longitude": -89.499582
        },
        {
          "name": "Niño Perdido",
          "code": "148325",
          "latitude": 15.1373127,
          "longitude": -90.1782972
        },
        {
          "name": "Ojo de Agua",
          "code": "148363",
          "latitude": 15.431777,
          "longitude": -91.4208198
        },
        {
          "name": "Ojos de Agua",
          "code": "148372",
          "latitude": 16.0326767,
          "longitude": -89.499582
        },
        {
          "name": "Pachalum",
          "code": "148413",
          "latitude": 14.92617055,
          "longitude": -90.66072867503303
        },
        {
          "name": "Pachaluncito",
          "code": "148414",
          "latitude": 16.0326767,
          "longitude": -89.499582
        },
        {
          "name": "Pachojob",
          "code": "148423",
          "latitude": 16.0326767,
          "longitude": -89.499582
        },
        {
          "name": "Pacoc",
          "code": "148430",
          "latitude": 14.5828135,
          "longitude": -90.9423376
        },
        {
          "name": "Palá",
          "code": "148464",
          "latitude": 14.7191881,
          "longitude": -91.3537968
        },
        {
          "name": "Palo Corcovado",
          "code": "148492",
          "latitude": 16.0326767,
          "longitude": -89.499582
        },
        {
          "name": "Palo Verde",
          "code": "148498",
          "latitude": -23.1816099,
          "longitude": -45.8337952
        },
        {
          "name": "Pamacal",
          "code": "148503",
          "latitude": 16.0326767,
          "longitude": -89.499582
        },
        {
          "name": "Pancajoc",
          "code": "148536",
          "latitude": 16.0326767,
          "longitude": -89.499582
        },
        {
          "name": "Panchisivia",
          "code": "148537",
          "latitude": 16.0326767,
          "longitude": -89.499582
        },
        {
          "name": "Panimá",
          "code": "148543",
          "latitude": 15.2275665,
          "longitude": -90.1559115
        },
        {
          "name": "Pansal",
          "code": "148559",
          "latitude": 15.25355925,
          "longitude": -90.12720168940476
        },
        {
          "name": "Pantín",
          "code": "148563",
          "latitude": 15.2590755,
          "longitude": -90.2827307
        },
        {
          "name": "Paoj",
          "code": "148568",
          "latitude": 16.0326767,
          "longitude": -89.499582
        },
        {
          "name": "Patixlán",
          "code": "148629",
          "latitude": 16.0326767,
          "longitude": -89.499582
        },
        {
          "name": "Patzicía",
          "code": "148647",
          "latitude": 14.630934,
          "longitude": -90.92973871124319
        },
        {
          "name": "Patzijom",
          "code": "148648",
          "latitude": 16.0326767,
          "longitude": -89.499582
        },
        {
          "name": "Paxocón",
          "code": "148669",
          "latitude": 16.0326767,
          "longitude": -89.499582
        },
        {
          "name": "Payaque",
          "code": "148677",
          "latitude": 16.0326767,
          "longitude": -89.499582
        },
        {
          "name": "Peña del Ángel",
          "code": "148691",
          "latitude": 15.2267383,
          "longitude": -90.1640654
        },
        {
          "name": "Pichec",
          "code": "148714",
          "latitude": 15.09247795,
          "longitude": -90.54719614999999
        },
        {
          "name": "Piedra Grande",
          "code": "148730",
          "latitude": 16.0326767,
          "longitude": -89.499582
        },
        {
          "name": "Plan de Los Achiotes",
          "code": "148781",
          "latitude": 16.0326767,
          "longitude": -89.499582
        },
        {
          "name": "Plan de Manzo",
          "code": "148782",
          "latitude": 16.0326767,
          "longitude": -89.499582
        },
        {
          "name": "Plan de Robles",
          "code": "148783",
          "latitude": 16.0326767,
          "longitude": -89.499582
        },
        {
          "name": "Plan Grande",
          "code": "148796",
          "latitude": 14.6512285,
          "longitude": -90.3136113
        },
        {
          "name": "Plan Redondo",
          "code": "148800",
          "latitude": 16.0326767,
          "longitude": -89.499582
        },
        {
          "name": "Pocó",
          "code": "148812",
          "latitude": 14.57650935,
          "longitude": -90.676638728609
        },
        {
          "name": "Pomiscalché",
          "code": "148822",
          "latitude": 16.0326767,
          "longitude": -89.499582
        },
        {
          "name": "Potreritos",
          "code": "148837",
          "latitude": 16.0326767,
          "longitude": -89.499582
        },
        {
          "name": "Potrero Grande",
          "code": "148845",
          "latitude": 14.1998,
          "longitude": -89.8950513
        },
        {
          "name": "Pozo de Agua",
          "code": "148858",
          "latitude": 14.9362535,
          "longitude": -90.2632159
        },
        {
          "name": "Purulhá",
          "code": "148911",
          "latitude": 15.21577725,
          "longitude": -90.02089765049837
        },
        {
          "name": "Rabinal",
          "code": "148970",
          "latitude": 15.129782800000001,
          "longitude": -90.52061527171925
        },
        {
          "name": "Rabinalá",
          "code": "148971",
          "latitude": 16.0326767,
          "longitude": -89.499582
        },
        {
          "name": "Rancho de Teja",
          "code": "148980",
          "latitude": 14.9984752,
          "longitude": -91.4864746
        },
        {
          "name": "Rancho Viejo",
          "code": "148986",
          "latitude": 14.9144935,
          "longitude": -90.0677633
        },
        {
          "name": "Raxjut",
          "code": "148989",
          "latitude": 16.0326767,
          "longitude": -89.499582
        },
        {
          "name": "Rincón Grande",
          "code": "149014",
          "latitude": 15.0314341,
          "longitude": -90.35033462941456
        },
        {
          "name": "Río Negro",
          "code": "149044",
          "latitude": 15.2433145,
          "longitude": -90.479191
        },
        {
          "name": "Rodeo",
          "code": "149068",
          "latitude": 14.9763624,
          "longitude": -90.6459081
        },
        {
          "name": "Salam",
          "code": "149134",
          "latitude": 16.0326767,
          "longitude": -89.499582
        },
        {
          "name": "Salamá",
          "code": "149135",
          "latitude": 15.1021016,
          "longitude": -90.3145505
        },
        {
          "name": "Saltán",
          "code": "149151",
          "latitude": 14.9392664,
          "longitude": -90.6414454
        },
        {
          "name": "San Antonio",
          "code": "149177",
          "latitude": 16.8665351,
          "longitude": -89.9923176
        },
        {
          "name": "San Antonio El Sitio",
          "code": "149190",
          "latitude": 16.0326767,
          "longitude": -89.499582
        },
        {
          "name": "San Diego",
          "code": "149244",
          "latitude": 14.795340450000001,
          "longitude": -89.75928054399265
        },
        {
          "name": "San Francisco",
          "code": "149260",
          "latitude": 16.7989153,
          "longitude": -89.9342545
        },
        {
          "name": "San Gabriel",
          "code": "149283",
          "latitude": 14.50863075,
          "longitude": -91.50272591732231
        },
        {
          "name": "San Ignacio",
          "code": "149288",
          "latitude": 14.8362936,
          "longitude": -91.8586019
        },
        {
          "name": "San Isidro",
          "code": "149292",
          "latitude": 15.3179399,
          "longitude": -88.8526348
        },
        {
          "name": "San Jacinto",
          "code": "149307",
          "latitude": 14.7159055,
          "longitude": -90.7746201
        },
        {
          "name": "San Jerónimo",
          "code": "149311",
          "latitude": 15.0612463,
          "longitude": -90.2422012
        },
        {
          "name": "San José El Espinero",
          "code": "149338",
          "latitude": 15.1764276,
          "longitude": -90.1467185
        },
        {
          "name": "San José Suchicul",
          "code": "149360",
          "latitude": 16.0326767,
          "longitude": -89.499582
        },
        {
          "name": "San Juan",
          "code": "149366",
          "latitude": 14.9157258,
          "longitude": -89.6136068
        },
        {
          "name": "San Luis",
          "code": "149408",
          "latitude": 16.2004433,
          "longitude": -89.4396587
        },
        {
          "name": "San Miguel Chicaj",
          "code": "149453",
          "latitude": 15.0941889,
          "longitude": -90.3944888
        },
        {
          "name": "San Miguelito",
          "code": "149465",
          "latitude": 15.4942618,
          "longitude": -91.20519818689039
        },
        {
          "name": "San Nicolás",
          "code": "149469",
          "latitude": 14.5436485,
          "longitude": -89.3285763
        },
        {
          "name": "San Pedro",
          "code": "149484",
          "latitude": 14.0140214,
          "longitude": -90.0227115
        },
        {
          "name": "San Rafael",
          "code": "149500",
          "latitude": 14.5005544,
          "longitude": -91.536364
        },
        {
          "name": "Santa Bárbara",
          "code": "149574",
          "latitude": 14.47897685,
          "longitude": -91.25912801216677
        },
        {
          "name": "Santa Catarina Arriba",
          "code": "149580",
          "latitude": 16.0326767,
          "longitude": -89.499582
        },
        {
          "name": "Santa Cruz",
          "code": "149594",
          "latitude": 16.8428748,
          "longitude": -89.917041
        },
        {
          "name": "Santa Inés Chivac",
          "code": "149618",
          "latitude": 16.0326767,
          "longitude": -89.499582
        },
        {
          "name": "Santa Lucía",
          "code": "149628",
          "latitude": 14.4781113,
          "longitude": -91.64182509705881
        },
        {
          "name": "Santa Lucía Segundo",
          "code": "149635",
          "latitude": 16.0326767,
          "longitude": -89.499582
        },
        {
          "name": "Santa Rita",
          "code": "149659",
          "latitude": 14.8622893,
          "longitude": -90.0236691
        },
        {
          "name": "Santa Rosa",
          "code": "149666",
          "latitude": 14.150152349999999,
          "longitude": -90.35088183533747
        },
        {
          "name": "Sinanjá",
          "code": "149858",
          "latitude": 16.0326767,
          "longitude": -89.499582
        },
        {
          "name": "Suchicul",
          "code": "149891",
          "latitude": 16.0326767,
          "longitude": -89.499582
        },
        {
          "name": "Sutún",
          "code": "149905",
          "latitude": 16.0326767,
          "longitude": -89.499582
        },
        {
          "name": "Tasquehuite",
          "code": "149971",
          "latitude": 15.0656745,
          "longitude": -90.2012461
        },
        {
          "name": "Trapiche de Agua",
          "code": "150094",
          "latitude": 16.0326767,
          "longitude": -89.499582
        },
        {
          "name": "Trapiche Viejo",
          "code": "150097",
          "latitude": 16.0326767,
          "longitude": -89.499582
        },
        {
          "name": "Trapichito",
          "code": "150098",
          "latitude": 14.2460565,
          "longitude": -90.0146075
        },
        {
          "name": "Trapichito Viejo",
          "code": "150099",
          "latitude": 16.0326767,
          "longitude": -89.499582
        },
        {
          "name": "Tuncaj",
          "code": "150147",
          "latitude": 14.9135329,
          "longitude": -90.5238275
        },
        {
          "name": "Vainillas",
          "code": "150210",
          "latitude": 14.9391717,
          "longitude": -90.2629799
        },
        {
          "name": "Vega de la Hamaca",
          "code": "150233",
          "latitude": 16.0326767,
          "longitude": -89.499582
        },
        {
          "name": "Vega del Limón",
          "code": "150235",
          "latitude": 14.9101754,
          "longitude": -90.0678009
        },
        {
          "name": "Vega del Sandial",
          "code": "150236",
          "latitude": 16.0326767,
          "longitude": -89.499582
        },
        {
          "name": "Vegas del Chile",
          "code": "150237",
          "latitude": 16.0326767,
          "longitude": -89.499582
        },
        {
          "name": "Vegas Santo Domingo",
          "code": "150238",
          "latitude": 16.0326767,
          "longitude": -89.499582
        },
        {
          "name": "Xeabaj",
          "code": "150288",
          "latitude": 14.8206974,
          "longitude": -91.2544826
        },
        {
          "name": "Xebalamguac",
          "code": "150295",
          "latitude": 16.0326767,
          "longitude": -89.499582
        },
        {
          "name": "Xeococ",
          "code": "150335",
          "latitude": 16.0326767,
          "longitude": -89.499582
        },
        {
          "name": "Xinacatí",
          "code": "150380",
          "latitude": 16.0326767,
          "longitude": -89.499582
        },
        {
          "name": "Xolcoy",
          "code": "150390",
          "latitude": 16.0326767,
          "longitude": -89.499582
        },
        {
          "name": "Yascap",
          "code": "150423",
          "latitude": 16.0326767,
          "longitude": -89.499582
        },
        {
          "name": "Yerbabuena",
          "code": "150429",
          "latitude": 14.6715787,
          "longitude": -90.2682577
        }
      ]
    },
    {
      "name": "Chimaltenango",
      "code": "245",
      "latitude": 16.0326767,
      "longitude": -89.499582,
      "cities": [
        {
          "name": "Acatenango",
          "code": "144976",
          "latitude": 14.5006848,
          "longitude": -90.8757094
        },
        {
          "name": "Acualcheyá",
          "code": "144985",
          "latitude": 16.0326767,
          "longitude": -89.499582
        },
        {
          "name": "Agua Caliente",
          "code": "145004",
          "latitude": 14.9365712,
          "longitude": -91.784563
        },
        {
          "name": "Agua Escondida",
          "code": "145014",
          "latitude": 14.6639342,
          "longitude": -91.109193
        },
        {
          "name": "Ajbalché",
          "code": "145049",
          "latitude": 16.0326767,
          "longitude": -89.499582
        },
        {
          "name": "Bola de Oro",
          "code": "145198",
          "latitude": 14.6982418,
          "longitude": -90.80118374253989
        },
        {
          "name": "Brasilar",
          "code": "145214",
          "latitude": 14.8768981,
          "longitude": -90.6520665
        },
        {
          "name": "Buena Vista",
          "code": "145230",
          "latitude": 14.7308504,
          "longitude": -91.9491667
        },
        {
          "name": "Caliaj",
          "code": "145279",
          "latitude": 16.0326767,
          "longitude": -89.499582
        },
        {
          "name": "Cambalcol",
          "code": "145294",
          "latitude": 16.0326767,
          "longitude": -89.499582
        },
        {
          "name": "Caquixajay",
          "code": "145376",
          "latitude": 14.7740941,
          "longitude": -91.0643649
        },
        {
          "name": "Cerro Alto",
          "code": "145440",
          "latitude": 14.5752675,
          "longitude": -90.8580983
        },
        {
          "name": "Chajalajyá",
          "code": "145486",
          "latitude": 14.8254607,
          "longitude": -90.9950727
        },
        {
          "name": "Chibalo",
          "code": "145554",
          "latitude": 16.0326767,
          "longitude": -89.499582
        },
        {
          "name": "Chicasanga",
          "code": "145567",
          "latitude": 14.5943335,
          "longitude": -90.8736563
        },
        {
          "name": "Chicastellanos",
          "code": "145568",
          "latitude": 16.0326767,
          "longitude": -89.499582
        },
        {
          "name": "Chichac",
          "code": "145571",
          "latitude": 16.0326767,
          "longitude": -89.499582
        },
        {
          "name": "Chichoy",
          "code": "145586",
          "latitude": 14.6864929,
          "longitude": -91.0700619
        },
        {
          "name": "Chicojom",
          "code": "145593",
          "latitude": 16.0326767,
          "longitude": -89.499582
        },
        {
          "name": "Chidonjuan",
          "code": "145602",
          "latitude": 14.784857,
          "longitude": -90.7138163
        },
        {
          "name": "Chigonzález",
          "code": "145604",
          "latitude": 16.0326767,
          "longitude": -89.499582
        },
        {
          "name": "Chiguarabal",
          "code": "145606",
          "latitude": 16.0326767,
          "longitude": -89.499582
        },
        {
          "name": "Chijabaj",
          "code": "145608",
          "latitude": 14.8825596,
          "longitude": -90.9263492
        },
        {
          "name": "Chijacinto",
          "code": "145609",
          "latitude": 16.0326767,
          "longitude": -89.499582
        },
        {
          "name": "Chijtzac",
          "code": "145613",
          "latitude": 16.0326767,
          "longitude": -89.499582
        },
        {
          "name": "Chimachoy",
          "code": "145626",
          "latitude": 14.5778623,
          "longitude": -90.8647335
        },
        {
          "name": "Chimaltenango",
          "code": "145627",
          "latitude": 14.6539748,
          "longitude": -90.92727412053142
        },
        {
          "name": "Chimasat",
          "code": "145629",
          "latitude": 14.6998805,
          "longitude": -90.9486222
        },
        {
          "name": "Chimixayá",
          "code": "145636",
          "latitude": 16.0326767,
          "longitude": -89.499582
        },
        {
          "name": "Chinimachavac",
          "code": "145659",
          "latitude": 16.0326767,
          "longitude": -89.499582
        },
        {
          "name": "Chinimachicaj",
          "code": "145660",
          "latitude": 16.0326767,
          "longitude": -89.499582
        },
        {
          "name": "Chipastor",
          "code": "145674",
          "latitude": 14.8529319,
          "longitude": -90.6707471
        },
        {
          "name": "Chipatá",
          "code": "145675",
          "latitude": 16.0326767,
          "longitude": -89.499582
        },
        {
          "name": "Chipiacul",
          "code": "145676",
          "latitude": 16.0326767,
          "longitude": -89.499582
        },
        {
          "name": "Chipocolaj",
          "code": "145679",
          "latitude": 16.0326767,
          "longitude": -89.499582
        },
        {
          "name": "Chiquex",
          "code": "145682",
          "latitude": 16.0326767,
          "longitude": -89.499582
        },
        {
          "name": "Chiquinjuyú",
          "code": "145691",
          "latitude": 14.7216569,
          "longitude": -90.9797466
        },
        {
          "name": "Chiraxaj",
          "code": "145698",
          "latitude": 14.7972219,
          "longitude": -90.92309068336161
        },
        {
          "name": "Chirijuyú",
          "code": "145704",
          "latitude": 14.6992307,
          "longitude": -90.9610469
        },
        {
          "name": "Chisal",
          "code": "145713",
          "latitude": 16.0326767,
          "longitude": -89.499582
        },
        {
          "name": "Chitún",
          "code": "145739",
          "latitude": 14.779792,
          "longitude": -90.7212514
        },
        {
          "name": "Chiuleu",
          "code": "145744",
          "latitude": 16.0326767,
          "longitude": -89.499582
        },
        {
          "name": "Chixolot",
          "code": "145749",
          "latitude": 16.0326767,
          "longitude": -89.499582
        },
        {
          "name": "Choatacaj",
          "code": "145759",
          "latitude": 16.0326767,
          "longitude": -89.499582
        },
        {
          "name": "Choatalum",
          "code": "145760",
          "latitude": 14.8080304,
          "longitude": -90.7471347
        },
        {
          "name": "Chojomá",
          "code": "145767",
          "latitude": 16.0326767,
          "longitude": -89.499582
        },
        {
          "name": "Chonoxté",
          "code": "145772",
          "latitude": 16.0326767,
          "longitude": -89.499582
        },
        {
          "name": "Chuabaj",
          "code": "145778",
          "latitude": 14.9056978,
          "longitude": -91.1079724
        },
        {
          "name": "Chuabajito",
          "code": "145780",
          "latitude": 16.0326767,
          "longitude": -89.499582
        },
        {
          "name": "Chuabux",
          "code": "145781",
          "latitude": 16.0326767,
          "longitude": -89.499582
        },
        {
          "name": "Chuacacay",
          "code": "145782",
          "latitude": 16.0326767,
          "longitude": -89.499582
        },
        {
          "name": "Chuachún",
          "code": "145785",
          "latitude": 16.0326767,
          "longitude": -89.499582
        },
        {
          "name": "Chuachunub",
          "code": "145786",
          "latitude": 16.0326767,
          "longitude": -89.499582
        },
        {
          "name": "Chuajercoc",
          "code": "145789",
          "latitude": 16.0326767,
          "longitude": -89.499582
        },
        {
          "name": "Chuantonio",
          "code": "145790",
          "latitude": 16.0326767,
          "longitude": -89.499582
        },
        {
          "name": "Chuaparal",
          "code": "145792",
          "latitude": 16.0326767,
          "longitude": -89.499582
        },
        {
          "name": "Chuaquenún",
          "code": "145794",
          "latitude": 16.0326767,
          "longitude": -89.499582
        },
        {
          "name": "Chuaracanjay",
          "code": "145796",
          "latitude": 14.9255137,
          "longitude": -90.9833247
        },
        {
          "name": "Chuatzán",
          "code": "145800",
          "latitude": 16.0326767,
          "longitude": -89.499582
        },
        {
          "name": "Chuatzunuj",
          "code": "145801",
          "latitude": 14.734392450000001,
          "longitude": -91.03981513830821
        },
        {
          "name": "Chuaxán",
          "code": "145804",
          "latitude": 14.8164371,
          "longitude": -90.7420546
        },
        {
          "name": "Chubixac",
          "code": "145807",
          "latitude": 16.0326767,
          "longitude": -89.499582
        },
        {
          "name": "Chuchucá",
          "code": "145814",
          "latitude": 16.0326767,
          "longitude": -89.499582
        },
        {
          "name": "Chuicubal",
          "code": "145828",
          "latitude": 16.0326767,
          "longitude": -89.499582
        },
        {
          "name": "Chuiquel",
          "code": "145831",
          "latitude": 16.0326767,
          "longitude": -89.499582
        },
        {
          "name": "Chuisac",
          "code": "145834",
          "latitude": 16.0326767,
          "longitude": -89.499582
        },
        {
          "name": "Chutiabajal",
          "code": "145865",
          "latitude": 14.7513217,
          "longitude": -90.9475172
        },
        {
          "name": "Ciénaga Grande",
          "code": "145874",
          "latitude": 14.5625059,
          "longitude": -90.4272466115836
        },
        {
          "name": "Cojobal",
          "code": "145903",
          "latitude": 14.6509495,
          "longitude": -90.9783089
        },
        {
          "name": "Cojoljuyú",
          "code": "145904",
          "latitude": 14.7169685,
          "longitude": -90.876074
        },
        {
          "name": "Cojomachoj",
          "code": "145905",
          "latitude": 16.0326767,
          "longitude": -89.499582
        },
        {
          "name": "Comalapa",
          "code": "145923",
          "latitude": 14.74611535,
          "longitude": -90.89399680718367
        },
        {
          "name": "Coyotera",
          "code": "145980",
          "latitude": 14.7791514,
          "longitude": -90.2157408
        },
        {
          "name": "Crusincoy",
          "code": "145992",
          "latitude": 16.0326767,
          "longitude": -89.499582
        },
        {
          "name": "Cruz de Santiago",
          "code": "146005",
          "latitude": 14.7227384,
          "longitude": -90.9936037
        },
        {
          "name": "Cuchuyá",
          "code": "146021",
          "latitude": 16.0326767,
          "longitude": -89.499582
        },
        {
          "name": "Don Tomás",
          "code": "146070",
          "latitude": 14.65130815,
          "longitude": -90.51549998291239
        },
        {
          "name": "Dulce Nombre",
          "code": "146075",
          "latitude": 14.49365285,
          "longitude": -90.70922114999999
        },
        {
          "name": "El Aguacate",
          "code": "146091",
          "latitude": 15.9802915,
          "longitude": -89.748881
        },
        {
          "name": "El Camán",
          "code": "146163",
          "latitude": 14.6841266,
          "longitude": -90.947198
        },
        {
          "name": "El Capulín",
          "code": "146175",
          "latitude": 14.742605600000001,
          "longitude": -91.15573884921602
        },
        {
          "name": "El Escudero",
          "code": "146333",
          "latitude": 16.0326767,
          "longitude": -89.499582
        },
        {
          "name": "El Molino",
          "code": "146479",
          "latitude": 14.2576464,
          "longitude": -90.2103844
        },
        {
          "name": "El Naranjo",
          "code": "146497",
          "latitude": 17.135260600000002,
          "longitude": -89.2602246364705
        },
        {
          "name": "El Recuerdo",
          "code": "146656",
          "latitude": 16.0618721,
          "longitude": -90.5180867
        },
        {
          "name": "El Rincón",
          "code": "146680",
          "latitude": 14.8134448,
          "longitude": -91.6967922
        },
        {
          "name": "El Rosario",
          "code": "146709",
          "latitude": 13.8507194,
          "longitude": -90.1240568
        },
        {
          "name": "El Sitán",
          "code": "146741",
          "latitude": 14.6313019,
          "longitude": -90.9040278
        },
        {
          "name": "El Sitio",
          "code": "146742",
          "latitude": 14.6326469,
          "longitude": -90.967318
        },
        {
          "name": "El Tablón",
          "code": "146766",
          "latitude": 14.3024677,
          "longitude": -89.871511
        },
        {
          "name": "El Tanque",
          "code": "146783",
          "latitude": 14.0713565,
          "longitude": -90.2453139
        },
        {
          "name": "El Tejar",
          "code": "146786",
          "latitude": 14.6474205,
          "longitude": -90.7909935
        },
        {
          "name": "El Tesoro",
          "code": "146797",
          "latitude": 14.9189825,
          "longitude": -90.955596
        },
        {
          "name": "Escobitas",
          "code": "146874",
          "latitude": 14.8047475,
          "longitude": -90.7141221
        },
        {
          "name": "Estancia de La Virgen",
          "code": "146892",
          "latitude": 15.1896535,
          "longitude": -91.5475702
        },
        {
          "name": "Estancia de San Martín",
          "code": "146893",
          "latitude": 14.7787468,
          "longitude": -90.7269242
        },
        {
          "name": "Hacienda María",
          "code": "147001",
          "latitude": 14.8707179,
          "longitude": -90.9148908
        },
        {
          "name": "Hacienda Vieja",
          "code": "147003",
          "latitude": 14.8780283,
          "longitude": -90.9375286
        },
        {
          "name": "Joya Grande",
          "code": "147143",
          "latitude": 14.089834,
          "longitude": -90.2445393
        },
        {
          "name": "La Aurora",
          "code": "147191",
          "latitude": 14.5831769,
          "longitude": -90.52718955123183
        },
        {
          "name": "La Canoa",
          "code": "147223",
          "latitude": 14.9163181,
          "longitude": -90.3992307
        },
        {
          "name": "La Chácara",
          "code": "147246",
          "latitude": 14.532251800000001,
          "longitude": -91.67606440469146
        },
        {
          "name": "La Comunidad",
          "code": "147260",
          "latitude": 14.5996703,
          "longitude": -90.558953
        },
        {
          "name": "La Cruz",
          "code": "147274",
          "latitude": 14.7848207,
          "longitude": -90.7307625
        },
        {
          "name": "La Cumbre",
          "code": "147288",
          "latitude": 16.0774656,
          "longitude": -89.3493691
        },
        {
          "name": "La Esperanza",
          "code": "147309",
          "latitude": 14.8692299,
          "longitude": -91.57130108446697
        },
        {
          "name": "La Garrucha",
          "code": "147341",
          "latitude": 14.9177034,
          "longitude": -90.934204
        },
        {
          "name": "La Laguna",
          "code": "147380",
          "latitude": 15.7699364,
          "longitude": -91.852019
        },
        {
          "name": "La Majada",
          "code": "147401",
          "latitude": 14.9835284,
          "longitude": -89.5276374
        },
        {
          "name": "La Pedrera",
          "code": "147440",
          "latitude": 15.7782642,
          "longitude": -88.8187391
        },
        {
          "name": "La Soledad",
          "code": "147493",
          "latitude": 16.2511611,
          "longitude": -90.3800369
        },
        {
          "name": "La Vega",
          "code": "147520",
          "latitude": 14.3589335,
          "longitude": -89.8760712
        },