{
  "name": "JAMAICA",
  "code": "58",
  "provinces": [
    {
      "name": "Clarendon",
      "code": "420",
      "latitude": 17.951852549999998,
      "longitude": -77.27192765048153,
      "cities": [
        {
          "name": "Clarendon",
          "code": "420",
          "latitude": 17.951852549999998,
          "longitude": -77.27192765048153
        },
        {
          "name": "Hanover Parish",
          "code": "421",
          "latitude": 18.45093655,
          "longitude": -78.16854469839933
        },
        {
          "name": "Jamaica (general)",
          "code": "422",
          "latitude": 18.0210495,
          "longitude": -76.7732434
        },
        {
          "name": "Kingston",
          "code": "423",
          "latitude": 17.9712148,
          "longitude": -76.7928128
        },
        {
          "name": "Manchester",
          "code": "424",
          "latitude": 18.049925700000003,
          "longitude": -77.51101429278486
        },
        {
          "name": "Portland",
          "code": "425",
          "latitude": 18.12682065,
          "longitude": -76.53740115177655
        },
        {
          "name": "Saint Andrew",
          "code": "426",
          "latitude": 18.0539564,
          "longitude": -76.76197426035179
        },
        {
          "name": "Saint Ann",
          "code": "427",
          "latitude": 18.32992995,
          "longitude": -77.25418164879164
        },
        {
          "name": "Saint Catherine",
          "code": "428",
          "latitude": 18.047173700000002,
          "longitude": -77.03338518903325
        },
        {
          "name": "Saint Elizabeth",
          "code": "429",
          "latitude": 18.053845000000003,
          "longitude": -77.78282485411846
        },
        {
          "name": "Saint James",
          "code": "430",
          "latitude": 18.36580905,
          "longitude": -77.85220374060782
        },
        {
          "name": "Saint Mary",
          "code": "431",
          "latitude": 18.2789179,
          "longitude": -76.90218682003889
        },
        {
          "name": "Saint Thomas",
          "code": "432",
          "latitude": 17.97163055,
          "longitude": -76.44143058556455
        },
        {
          "name": "Trelawny",
          "code": "433",
          "latitude": 18.368212800000002,
          "longitude": -77.60436149488739
        },
        {
          "name": "Westmoreland",
          "code": "434",
          "latitude": 18.210402600000002,
          "longitude": -77.97932110510433
        }
      ]
    },
    {
      "name": "Hanover Parish",
      "code": "421",
      "latitude": 17.951852549999998,
      "longitude": -77.27192765048153,
      "cities": [
        {
          "name": "Abingdon",
          "code": "188240",
          "latitude": 18.3958628,
          "longitude": -78.2907521
        },
        {
          "name": "Alexandria",
          "code": "188261",
          "latitude": 18.308056,
          "longitude": -77.3536927
        },
        {
          "name": "Argyle",
          "code": "188295",
          "latitude": 18.3105396,
          "longitude": -77.9656321
        },
        {
          "name": "Askenish",
          "code": "188308",
          "latitude": 18.3832596,
          "longitude": -78.1487775
        },
        {
          "name": "Axe and Adze",
          "code": "188312",
          "latitude": 18.3647083,
          "longitude": -78.0368543
        },
        {
          "name": "Bachelors Hall",
          "code": "188316",
          "latitude": 17.9506979,
          "longitude": -76.3169253
        },
        {
          "name": "Bamboo",
          "code": "188329",
          "latitude": 18.3911824,
          "longitude": -77.2663689
        },
        {
          "name": "Banana Ground",
          "code": "188331",
          "latitude": 18.0806716,
          "longitude": -77.4313832
        },
        {
          "name": "Barbican",
          "code": "188340",
          "latitude": 18.0308799,
          "longitude": -76.7754672
        },
        {
          "name": "Belvedere",
          "code": "188380",
          "latitude": 17.8753464,
          "longitude": -76.4353201
        },
        {
          "name": "Blue Hole",
          "code": "188427",
          "latitude": 18.1706245,
          "longitude": -76.3875425
        },
        {
          "name": "Bowers Hall",
          "code": "188456",
          "latitude": 17.951852549999998,
          "longitude": -77.27192765048153
        },
        {
          "name": "Buxton",
          "code": "188530",
          "latitude": 18.374646,
          "longitude": -78.1062162
        },
        {
          "name": "Cacoon",
          "code": "188535",
          "latitude": 18.4085889,
          "longitude": -78.2015205
        },
        {
          "name": "Cacoon Castle",
          "code": "188536",
          "latitude": 17.951852549999998,
          "longitude": -77.27192765048153
        },
        {
          "name": "Caledonia",
          "code": "188540",
          "latitude": 18.3140961,
          "longitude": -77.4317557
        },
        {
          "name": "Cambelton",
          "code": "188547",
          "latitude": 17.951852549999998,
          "longitude": -77.27192765048153
        },
        {
          "name": "Cascade",
          "code": "188572",
          "latitude": 18.3978306,
          "longitude": -78.1029616
        },
        {
          "name": "Cauldwell",
          "code": "188584",
          "latitude": 17.951852549999998,
          "longitude": -77.27192765048153
        },
        {
          "name": "Cave Valley",
          "code": "188588",
          "latitude": 18.324259,
          "longitude": -78.2711936
        },
        {
          "name": "Chigwell",
          "code": "188630",
          "latitude": 17.991941,
          "longitude": -76.8698672
        },
        {
          "name": "Commadore",
          "code": "188681",
          "latitude": 17.951852549999998,
          "longitude": -77.27192765048153
        },
        {
          "name": "Content",
          "code": "188689",
          "latitude": 18.179307,
          "longitude": -77.9987088
        },
        {
          "name": "Cousins Cove",
          "code": "188714",
          "latitude": 18.4268666,
          "longitude": -78.2379291
        },
        {
          "name": "Coventry Pen",
          "code": "188715",
          "latitude": 17.951852549999998,
          "longitude": -77.27192765048153
        },
        {
          "name": "Dias",
          "code": "188767",
          "latitude": 18.39746,
          "longitude": -78.1931411
        },
        {
          "name": "Eaton",
          "code": "188805",
          "latitude": 17.9929929,
          "longitude": -76.8834944
        },
        {
          "name": "Eden",
          "code": "188812",
          "latitude": 17.9881751,
          "longitude": -76.7714328
        },
        {
          "name": "Elgin Town",
          "code": "188825",
          "latitude": 18.4450833,
          "longitude": -78.1510037
        },
        {
          "name": "Esher",
          "code": "188846",
          "latitude": 18.45355985,
          "longitude": -78.198216265423
        },
        {
          "name": "Fish River",
          "code": "188878",
          "latitude": 17.951852549999998,
          "longitude": -77.27192765048153
        },
        {
          "name": "Flint River",
          "code": "188884",
          "latitude": 18.3992537,
          "longitude": -78.0944735
        },
        {
          "name": "Friendship",
          "code": "188919",
          "latitude": 17.9415832,
          "longitude": -76.368134
        },
        {
          "name": "Georgia",
          "code": "188951",
          "latitude": 31.2518938,
          "longitude": -81.6523294
        },
        {
          "name": "Golden Grove",
          "code": "188976",
          "latitude": 17.9278371,
          "longitude": -76.27363891294787
        },
        {
          "name": "Grange",
          "code": "189000",
          "latitude": 18.3352896,
          "longitude": -78.0753824
        },
        {
          "name": "Great Valley",
          "code": "189010",
          "latitude": 18.400282,
          "longitude": -78.0604148
        },
        {
          "name": "Green Island",
          "code": "189016",
          "latitude": 18.3887509,
          "longitude": -78.2737894
        },
        {
          "name": "Green River",
          "code": "189022",
          "latitude": 18.0509829,
          "longitude": -76.64467
        },
        {
          "name": "Greenland",
          "code": "189028",
          "latitude": 18.4154601,
          "longitude": -78.1824446
        },
        {
          "name": "Haddington",
          "code": "189051",
          "latitude": 17.951852549999998,
          "longitude": -77.27192765048153
        },
        {
          "name": "Haughton Court",
          "code": "189094",
          "latitude": 17.951852549999998,
          "longitude": -77.27192765048153
        },
        {
          "name": "Haughton Grove",
          "code": "189095",
          "latitude": 17.951852549999998,
          "longitude": -77.27192765048153
        },
        {
          "name": "Haughton Hall",
          "code": "189096",
          "latitude": 17.951852549999998,
          "longitude": -77.27192765048153
        },
        {
          "name": "Hope Hall",
          "code": "189136",
          "latitude": 18.2559436,
          "longitude": -78.2160847
        },
        {
          "name": "Hopewell",
          "code": "189142",
          "latitude": 18.4568429,
          "longitude": -78.0119125
        },
        {
          "name": "Jericho",
          "code": "189192",
          "latitude": 18.4298634,
          "longitude": -78.1298733
        },
        {
          "name": "Jew Hill",
          "code": "189196",
          "latitude": 17.951852549999998,
          "longitude": -77.27192765048153
        },
        {
          "name": "Johnson Town",
          "code": "189205",
          "latitude": 18.4351936,
          "longitude": -78.1680209
        },
        {
          "name": "Jones Moreland",
          "code": "189209",
          "latitude": 17.951852549999998,
          "longitude": -77.27192765048153
        },
        {
          "name": "Kempshot",
          "code": "189220",
          "latitude": 18.4090572,
          "longitude": -77.8697205
        },
        {
          "name": "Kew",
          "code": "189232",
          "latitude": 18.4390363,
          "longitude": -78.1531126
        },
        {
          "name": "Kingsvale",
          "code": "189242",
          "latitude": 18.3836737,
          "longitude": -78.2027272
        },
        {
          "name": "Knockalva",
          "code": "189250",
          "latitude": 18.3163079,
          "longitude": -77.9921873
        },
        {
          "name": "Lances Bay",
          "code": "189263",
          "latitude": 18.4433462,
          "longitude": -78.2164919
        },
        {
          "name": "Lethe",
          "code": "189276",
          "latitude": 18.501849,
          "longitude": -77.8927119
        },
        {
          "name": "Logwood",
          "code": "189320",
          "latitude": 17.969977,
          "longitude": -77.5713623
        },
        {
          "name": "Lucea",
          "code": "189345",
          "latitude": 18.4472235,
          "longitude": -78.1729253
        },
        {
          "name": "Maggotty",
          "code": "189355",
          "latitude": 18.159508,
          "longitude": -77.7624541
        },
        {
          "name": "March Town",
          "code": "189378",
          "latitude": 18.3445561,
          "longitude": -78.2745731
        },
        {
          "name": "Maryland",
          "code": "189394",
          "latitude": 18.3867009,
          "longitude": -78.1282855
        },
        {
          "name": "Middlesex",
          "code": "189420",
          "latitude": 18.40559,
          "longitude": -78.1821617
        },
        {
          "name": "Miles Town",
          "code": "189426",
          "latitude": 17.9896267,
          "longitude": -76.8152557
        },
        {
          "name": "Mosquito Cove",
          "code": "189460",
          "latitude": 18.4497308,
          "longitude": -78.1081689
        },
        {
          "name": "Mount Pleasant",
          "code": "189487",
          "latitude": 18.2172274,
          "longitude": -78.0589559
        },
        {
          "name": "Mountain Valley",
          "code": "189509",
          "latitude": 17.951852549999998,
          "longitude": -77.27192765048153
        },
        {
          "name": "New Green Island",
          "code": "189527",
          "latitude": 17.951852549999998,
          "longitude": -77.27192765048153
        },
        {
          "name": "Orange Bay",
          "code": "189584",
          "latitude": 18.2274862,
          "longitude": -76.6140154
        },
        {
          "name": "Orange Cove",
          "code": "189585",
          "latitude": 18.4540256,
          "longitude": -78.1943858
        },
        {
          "name": "Orchard",
          "code": "189595",
          "latitude": 17.951852549999998,
          "longitude": -77.27192765048153
        },
        {
          "name": "Paradise",
          "code": "189613",
          "latitude": 18.2233931,
          "longitude": -78.0804546
        },
        {
          "name": "Peak Pen",
          "code": "189628",
          "latitude": 17.951852549999998,
          "longitude": -77.27192765048153
        },
        {
          "name": "Pedro",
          "code": "189634",
          "latitude": -1.6863951,
          "longitude": -78.6290135
        },
        {
          "name": "Pennycooke",
          "code": "189642",
          "latitude": 18.3555113,
          "longitude": -78.0971662
        },
        {
          "name": "Phoenix",
          "code": "189656",
          "latitude": 18.474394699999998,
          "longitude": -77.9223797755943
        },
        {
          "name": "Phoenix Town",
          "code": "189660",
          "latitude": 17.951852549999998,
          "longitude": -77.27192765048153
        },
        {
          "name": "Point",
          "code": "189675",
          "latitude": 18.3597697,
          "longitude": -77.8207326
        },
        {
          "name": "Pondside",
          "code": "189678",
          "latitude": 17.9626698,
          "longitude": -77.7914214
        },
        {
          "name": "Prospect",
          "code": "189699",
          "latitude": 18.4092608,
          "longitude": -77.0519042
        },
        {
          "name": "Ramble",
          "code": "189725",
          "latitude": 17.9773558,
          "longitude": -76.6191449
        },
        {
          "name": "Ramble Pen",
          "code": "189726",
          "latitude": 18.3438038,
          "longitude": -76.9746116
        },
        {
          "name": "Recovery Pen",
          "code": "189734",
          "latitude": 18.4280109,
          "longitude": -78.0548036
        },
        {
          "name": "Rhodes Hall",
          "code": "189773",
          "latitude": 18.369992,
          "longitude": -78.30263532837802
        },
        {
          "name": "Riverside",
          "code": "189796",
          "latitude": 33.914805,
          "longitude": -117.2091898
        },
        {
          "name": "Rock Spring",
          "code": "189809",
          "latitude": 18.3005267,
          "longitude": -77.5717807
        },
        {
          "name": "Rome",
          "code": "189816",
          "latitude": 18.4183307,
          "longitude": -78.0458021
        },
        {
          "name": "Round Hill",
          "code": "189832",
          "latitude": 17.9998217,
          "longitude": -76.4307448
        },
        {
          "name": "Sadlers Hall",
          "code": "189846",
          "latitude": 17.951852549999998,
          "longitude": -77.27192765048153
        },
        {
          "name": "Salem",
          "code": "189865",
          "latitude": 18.1429479,
          "longitude": -77.9872934
        },
        {
          "name": "Salt Spring",
          "code": "189876",
          "latitude": 18.4851963,
          "longitude": -77.87377941209559
        },
        {
          "name": "Sandy Bay",
          "code": "189879",
          "latitude": 18.4496132,
          "longitude": -78.0767186
        },
        {
          "name": "Saxham",
          "code": "189889",
          "latitude": 17.951852549999998,
          "longitude": -77.27192765048153
        },
        {
          "name": "Shepperds Hall",
          "code": "189918",
          "latitude": 17.951852549999998,
          "longitude": -77.27192765048153
        },
        {
          "name": "Shettlewood",
          "code": "189923",
          "latitude": 18.3467252,
          "longitude": -77.9435778
        },
        {
          "name": "Smithfield",
          "code": "189947",
          "latitude": 18.2130847,
          "longitude": -78.120236
        },
        {
          "name": "Spring Valley",
          "code": "189994",
          "latitude": 18.0360961,
          "longitude": -76.3069475
        },
        {
          "name": "Success",
          "code": "190037",
          "latitude": 18.1655427,
          "longitude": -77.9660098
        },
        {
          "name": "Tarwood",
          "code": "190054",
          "latitude": 17.951852549999998,
          "longitude": -77.27192765048153
        },
        {
          "name": "Thompsons Bush",
          "code": "190077",
          "latitude": 17.951852549999998,
          "longitude": -77.27192765048153
        },
        {
          "name": "Thomson Hill",
          "code": "190078",
          "latitude": 17.951852549999998,
          "longitude": -77.27192765048153
        },
        {
          "name": "Tom Spring",
          "code": "190089",
          "latitude": 18.4066064,
          "longitude": -77.7005884
        },
        {
          "name": "Tryall",
          "code": "190121",
          "latitude": 18.4507079,
          "longitude": -78.0573249
        },
        {
          "name": "Westfield",
          "code": "190180",
          "latitude": 18.3523362,
          "longitude": -78.2543171
        }
      ]
    },
    {
      "name": "Jamaica (general)",
      "code": "422",
      "latitude": 17.951852549999998,
      "longitude": -77.27192765048153,
      "cities": [
        {
          "name": "Pear Tree Grove",
          "code": "189629",
          "latitude": 18.2484267,
          "longitude": -76.9415903
        },
        {
          "name": "Whitney Turn",
          "code": "190201",
          "latitude": 18.0324131,
          "longitude": -77.392982
        }
      ]
    },
    {
      "name": "Kingston",
      "code": "423",
      "latitude": 17.951852549999998,
      "longitude": -77.27192765048153,
      "cities": [
        {
          "name": "Port Royal",
          "code": "189687",
          "latitude": 17.9360762,
          "longitude": -76.8417961
        }
      ]
    },
    {
      "name": "Manchester",
      "code": "424",
      "latitude": 17.951852549999998,
      "longitude": -77.27192765048153,
      "cities": [
        {
          "name": "Adams Valley",
          "code": "188246",
          "latitude": 17.951852549999998,
          "longitude": -77.27192765048153
        },
        {
          "name": "Arcadia",
          "code": "188290",
          "latitude": 17.9211505,
          "longitude": -76.3047057
        },
        {
          "name": "Asia",
          "code": "188307",
          "latitude": 17.951852549999998,
          "longitude": -77.27192765048153
        },
        {
          "name": "Auchtembeddie",
          "code": "188310",
          "latitude": 18.2168167,
          "longitude": -77.6227963
        },
        {
          "name": "Ballynure",
          "code": "188327",
          "latitude": 17.951852549999998,
          "longitude": -77.27192765048153
        },
        {
          "name": "Barossa",
          "code": "188346",
          "latitude": 17.951852549999998,
          "longitude": -77.27192765048153
        },
        {
          "name": "Belle Retiro",
          "code": "188368",
          "latitude": 17.951852549999998,
          "longitude": -77.27192765048153
        },
        {
          "name": "Belleair",
          "code": "188369",
          "latitude": 17.951852549999998,
          "longitude": -77.27192765048153
        },
        {
          "name": "Bellefield",
          "code": "188370",
          "latitude": 18.0812631,
          "longitude": -77.4526477
        },
        {
          "name": "Berwick",
          "code": "188397",
          "latitude": 18.1426505,
          "longitude": -76.9896341
        },
        {
          "name": "Bethany",
          "code": "188398",
          "latitude": 18.311458,
          "longitude": -77.3709876
        },
        {
          "name": "Beverly",
          "code": "188406",
          "latitude": 18.2286177,
          "longitude": -76.8232298
        },
        {
          "name": "Blakes Pen",
          "code": "188419",
          "latitude": 17.951852549999998,
          "longitude": -77.27192765048153
        },
        {
          "name": "Bloomfield",
          "code": "188420",
          "latitude": 17.9107142,
          "longitude": -76.5641499
        },
        {
          "name": "Blue Mountain",
          "code": "188430",
          "latitude": 17.9258329,
          "longitude": -76.4749289
        },
        {
          "name": "Bossue",
          "code": "188450",
          "latitude": 18.12961,
          "longitude": -76.6470623
        },
        {
          "name": "Brokenhurst",
          "code": "188492",
          "latitude": 17.951852549999998,
          "longitude": -77.27192765048153
        },
        {
          "name": "Browns Town",
          "code": "188499",
          "latitude": 17.9983594,
          "longitude": -76.917934
        },
        {
          "name": "Buck Up",
          "code": "188510",
          "latitude": 17.951852549999998,
          "longitude": -77.27192765048153
        },
        {
          "name": "Buckup",
          "code": "188513",
          "latitude": 17.951852549999998,
          "longitude": -77.27192765048153
        },
        {
          "name": "Caledonia",
          "code": "188544",
          "latitude": 18.3140961,
          "longitude": -77.4317557
        },
        {
          "name": "California",
          "code": "188546",
          "latitude": 33.7375511,
          "longitude": -116.9429821
        },
        {
          "name": "Campbell Castle",
          "code": "188555",
          "latitude": 17.951852549999998,
          "longitude": -77.27192765048153
        },
        {
          "name": "Chantilly",
          "code": "188601",
          "latitude": 18.1912251,
          "longitude": -77.9596125
        },
        {
          "name": "Cheapside",
          "code": "188615",
          "latitude": 17.951852549999998,
          "longitude": -77.27192765048153
        },
        {
          "name": "Chelsea",
          "code": "188619",
          "latitude": 17.9290178,
          "longitude": -77.6919758
        },
        {
          "name": "Christiana",
          "code": "188634",
          "latitude": 18.1749007,
          "longitude": -77.4920547
        },
        {
          "name": "Chudleigh",
          "code": "188636",
          "latitude": 18.150409,
          "longitude": -77.5117743
        },
        {
          "name": "Clandon",
          "code": "188639",
          "latitude": 18.1554758,
          "longitude": -77.4705112
        },
        {
          "name": "Clarks Town",
          "code": "188645",
          "latitude": 18.0618246,
          "longitude": -77.5133521
        },
        {
          "name": "Cobblers",
          "code": "188660",
          "latitude": 17.951852549999998,
          "longitude": -77.27192765048153
        },
        {
          "name": "Cocoa Walk",
          "code": "188664",
          "latitude": 17.9623228,
          "longitude": -76.6075802
        },
        {
          "name": "Coffee Grove",
          "code": "188667",
          "latitude": 18.0532136,
          "longitude": -77.4091101
        },
        {
          "name": "Coleyville",
          "code": "188672",
          "latitude": 18.2064317,
          "longitude": -77.5064421
        },
        {
          "name": "Comfort Hall",
          "code": "188677",
          "latitude": 18.1851807,
          "longitude": -77.6130438
        },
        {
          "name": "Content",
          "code": "188694",
          "latitude": 18.179307,
          "longitude": -77.9987088
        },
        {
          "name": "Cottage",
          "code": "188709",
          "latitude": 18.2543567,
          "longitude": -76.7304683
        },
        {
          "name": "Craig Head",
          "code": "188718",
          "latitude": 17.951852549999998,
          "longitude": -77.27192765048153
        },
        {
          "name": "Cross Keys",
          "code": "188730",
          "latitude": 17.8978201,
          "longitude": -77.5031952
        },
        {
          "name": "Davyton",
          "code": "188751",
          "latitude": 18.09535195,
          "longitude": -77.45925982855144
        },
        {
          "name": "Devon",
          "code": "188763",
          "latitude": 18.1678263,
          "longitude": -77.5319177
        },
        {
          "name": "Downs",
          "code": "188779",
          "latitude": 17.9385618,
          "longitude": -77.7668739
        },
        {
          "name": "Duff House",
          "code": "188791",
          "latitude": 17.8842865,
          "longitude": -77.5651529
        },
        {
          "name": "Dump",
          "code": "188794",
          "latitude": 18.2005408,
          "longitude": -77.5030893
        },
        {
          "name": "Dunkeld",
          "code": "188799",
          "latitude": 17.951852549999998,
          "longitude": -77.27192765048153
        },
        {
          "name": "Eglington",
          "code": "188818",
          "latitude": 17.951852549999998,
          "longitude": -77.27192765048153
        },
        {
          "name": "Ellen Street",
          "code": "188827",
          "latitude": 17.951852549999998,
          "longitude": -77.27192765048153
        },
        {
          "name": "Enfield",
          "code": "188840",
          "latitude": 18.2153161,
          "longitude": -77.9601186
        },
        {
          "name": "Evergreen",
          "code": "188852",
          "latitude": 14.1032033,
          "longitude": 122.9547718
        },
        {
          "name": "Fairfield",
          "code": "188859",
          "latitude": 18.1761902,
          "longitude": -76.6961897
        },
        {
          "name": "Free Town",
          "code": "188910",
          "latitude": 17.951852549999998,
          "longitude": -77.27192765048153
        },
        {
          "name": "French Park",
          "code": "188915",
          "latitude": 17.9779371,
          "longitude": -77.5479198
        },
        {
          "name": "Galway",
          "code": "188939",
          "latitude": 18.0486256,
          "longitude": -77.4984655
        },
        {
          "name": "Gods Well",
          "code": "188971",
          "latitude": 17.951852549999998,
          "longitude": -77.27192765048153
        },
        {
          "name": "Gravel Hill",
          "code": "189006",
          "latitude": 17.9059551,
          "longitude": -77.3282066
        },
        {
          "name": "Great Valley",
          "code": "189009",
          "latitude": 18.400282,
          "longitude": -78.0604148
        },
        {
          "name": "Green Pond",
          "code": "189020",
          "latitude": 17.951852549999998,
          "longitude": -77.27192765048153
        },
        {
          "name": "Green Vale",
          "code": "189024",
          "latitude": 18.1694624,
          "longitude": -76.6722965
        },
        {
          "name": "Greenvale",
          "code": "189030",
          "latitude": 18.387831,
          "longitude": -77.7387214
        },
        {
          "name": "Grove Place",
          "code": "189041",
          "latitude": 17.880386,
          "longitude": -76.6105332
        },
        {
          "name": "Grove Town",
          "code": "189042",
          "latitude": 17.951852549999998,
          "longitude": -77.27192765048153
        },
        {
          "name": "Halifax",
          "code": "189055",
          "latitude": 18.1581061,
          "longitude": -77.5317299
        },
        {
          "name": "Hanbury",
          "code": "189070",
          "latitude": 18.0545427,
          "longitude": -77.4937332
        },
        {
          "name": "Hanover",
          "code": "189071",
          "latitude": 18.3850653,
          "longitude": -78.13099300627783
        },
        {
          "name": "Hansons",
          "code": "189072",
          "latitude": 17.951852549999998,
          "longitude": -77.27192765048153
        },
        {
          "name": "Harmons",
          "code": "189083",
          "latitude": 17.9715117,
          "longitude": -77.4188519
        },
        {
          "name": "Harry Watch",
          "code": "189089",
          "latitude": 17.951852549999998,
          "longitude": -77.27192765048153
        },
        {
          "name": "Hatfield",
          "code": "189092",
          "latitude": 18.2337816,
          "longitude": -78.1195753
        },
        {
          "name": "Heavitree",
          "code": "189105",
          "latitude": 18.1887583,
          "longitude": -77.5836253
        },
        {
          "name": "Hermitage",
          "code": "189108",
          "latitude": 18.0757964,
          "longitude": -76.7840266
        },
        {
          "name": "Hibernia",
          "code": "189113",
          "latitude": 52.745130599999996,
          "longitude": -8.772411966079815
        },
        {
          "name": "Hog Hole",
          "code": "189125",
          "latitude": 18.3491385,
          "longitude": -78.1011701
        },
        {
          "name": "Hope",
          "code": "189131",
          "latitude": 18.47229325,
          "longitude": -77.92265182256274
        },
        {
          "name": "Hopewell",
          "code": "189147",
          "latitude": 18.4568429,
          "longitude": -78.0119125
        },
        {
          "name": "Huntley",
          "code": "189151",
          "latitude": 18.2159148,
          "longitude": -77.8799826
        },
        {
          "name": "Isle",
          "code": "189173",
          "latitude": 18.3022038,
          "longitude": -78.1771226
        },
        {
          "name": "Java",
          "code": "189190",
          "latitude": 17.951852549999998,
          "longitude": -77.27192765048153
        },
        {
          "name": "Johns Hall",
          "code": "189198",
          "latitude": 17.951852549999998,
          "longitude": -77.27192765048153
        },
        {
          "name": "Keanwood",
          "code": "189215",
          "latitude": 18.1967734,
          "longitude": -77.6047641
        },
        {
          "name": "Kendal",
          "code": "189221",
          "latitude": 18.3644028,
          "longitude": -78.2270766
        },
        {
          "name": "Knockpatrick",
          "code": "189251",
          "latitude": 17.9950082,
          "longitude": -77.5031947
        },
        {
          "name": "Lancaster",
          "code": "189259",
          "latitude": 40.6978631,
          "longitude": -96.6898714
        },
        {
          "name": "Lincoln",
          "code": "189290",
          "latitude": 18.1702779,
          "longitude": -76.5449667
        },
        {
          "name": "Lititz",
          "code": "189296",
          "latitude": 17.926744,
          "longitude": -77.5880483
        },
        {
          "name": "Little Mountain",
          "code": "189302",
          "latitude": 17.951852549999998,
          "longitude": -77.27192765048153
        },
        {
          "name": "Lochaber",
          "code": "189313",
          "latitude": 17.951852549999998,
          "longitude": -77.27192765048153
        },
        {
          "name": "Lucky Valley",
          "code": "189349",
          "latitude": 18.1385519,
          "longitude": -76.954937
        },
        {
          "name": "Maidstone",
          "code": "189362",
          "latitude": 18.154278,
          "longitude": -76.5177959
        },
        {
          "name": "Malton",
          "code": "189365",
          "latitude": 17.951852549999998,
          "longitude": -77.27192765048153
        },
        {
          "name": "Mandeville",
          "code": "189373",
          "latitude": 18.0431254,
          "longitude": -77.50741
        },
        {
          "name": "Marlborough",
          "code": "189380",
          "latitude": 17.9782841,
          "longitude": -76.7873941
        },
        {
          "name": "Marley Hill",
          "code": "189383",
          "latitude": 17.8705887,
          "longitude": -77.5156045
        },
        {
          "name": "Marshalls Pen",
          "code": "189387",
          "latitude": 18.0741679,
          "longitude": -77.5279417
        },
        {
          "name": "Mason",
          "code": "189396",
          "latitude": 17.951852549999998,
          "longitude": -77.27192765048153
        },
        {
          "name": "May Hill",
          "code": "189405",
          "latitude": 18.2050558,
          "longitude": -76.7408324
        },
        {
          "name": "Mile Gully",
          "code": "189425",
          "latitude": 18.1377158,
          "longitude": -77.5465679
        },
        {
          "name": "Montpelier",
          "code": "189448",
          "latitude": 18.0864955,
          "longitude": -76.9297803
        },
        {
          "name": "Moreland",
          "code": "189455",
          "latitude": 18.3207023,
          "longitude": -78.2435235
        },
        {
          "name": "Mount Blow",
          "code": "189464",
          "latitude": 17.951852549999998,
          "longitude": -77.27192765048153
        },
        {
          "name": "Mount Nelson",
          "code": "189482",
          "latitude": 17.951852549999998,
          "longitude": -77.27192765048153
        },
        {
          "name": "Mount Pleasant",
          "code": "189494",
          "latitude": 18.2172274,
          "longitude": -78.0589559
        },
        {
          "name": "Mount Prospect",
          "code": "189496",
          "latitude": 18.1336068,
          "longitude": -76.7918372
        },
        {
          "name": "Newark",
          "code": "189539",
          "latitude": 17.9935705,
          "longitude": -77.5611592
        },
        {
          "name": "Newhall",
          "code": "189543",
          "latitude": 17.951852549999998,
          "longitude": -77.27192765048153
        },
        {
          "name": "Newport",
          "code": "189547",
          "latitude": 17.9604523,
          "longitude": -77.5086764
        },
        {
          "name": "Nonpareil",
          "code": "189552",
          "latitude": 17.951852549999998,
          "longitude": -77.27192765048153
        },
        {
          "name": "Norway",
          "code": "189559",
          "latitude": 18.19202,
          "longitude": -77.8196597
        },
        {
          "name": "Old England",
          "code": "189569",
          "latitude": 17.9935478,
          "longitude": -77.4721453
        },
        {
          "name": "Oldbury",
          "code": "189579",
          "latitude": 17.9675379,
          "longitude": -77.5151861
        },
        {
          "name": "Oxford",
          "code": "189603",
          "latitude": 18.4512371,
          "longitude": -77.5804067
        },
        {
          "name": "Park Hall",
          "code": "189617",
          "latitude": 18.1516222,
          "longitude": -77.3417974
        },
        {
          "name": "Patrick Town",
          "code": "189625",
          "latitude": 17.951852549999998,
          "longitude": -77.27192765048153
        },
        {
          "name": "Pear Tree Valley",
          "code": "189631",
          "latitude": 17.951852549999998,
          "longitude": -77.27192765048153
        },
        {
          "name": "Perth",
          "code": "189647",
          "latitude": 18.4330493,
          "longitude": -77.6366526
        },
        {
          "name": "Petersfield",
          "code": "189651",
          "latitude": 18.2625672,
          "longitude": -78.0714266
        },
        {
          "name": "Pleasant Hill",
          "code": "189669",
          "latitude": 18.1886055,
          "longitude": -77.8710294
        },
        {
          "name": "Plowden Hill",
          "code": "189672",
          "latitude": 17.8811468,
          "longitude": -77.5451303
        },
        {
          "name": "Port Mahon",
          "code": "189684",
          "latitude": 17.951852549999998,
          "longitude": -77.27192765048153
        },
        {
          "name": "Porus",
          "code": "189691",
          "latitude": 18.0355656,
          "longitude": -77.4108267
        },
        {
          "name": "Pratville",
          "code": "189694",
          "latitude": 17.9114218,
          "longitude": -77.4157365
        },
        {
          "name": "Prospect",
          "code": "189703",
          "latitude": 18.4092608,
          "longitude": -77.0519042
        },
        {
          "name": "Providence",
          "code": "189711",
          "latitude": 18.169544,
          "longitude": -76.8330145
        },
        {
          "name": "Pusey Hill",
          "code": "189716",
          "latitude": 17.9022253,
          "longitude": -77.4061436
        },
        {
          "name": "Quatre Bras",
          "code": "189717",
          "latitude": 17.951852549999998,
          "longitude": -77.27192765048153
        },
        {
          "name": "Redbury",
          "code": "189741",
          "latitude": 17.951852549999998,
          "longitude": -77.27192765048153
        },
        {
          "name": "Reeves Wood",
          "code": "189744",
          "latitude": 17.951852549999998,
          "longitude": -77.27192765048153
        },
        {
          "name": "Relford",
          "code": "189746",
          "latitude": 17.951852549999998,
          "longitude": -77.27192765048153
        },
        {
          "name": "Resource",
          "code": "189751",
          "latitude": 18.0627203,
          "longitude": -76.6679621
        },
        {
          "name": "Rest Store",
          "code": "189756",
          "latitude": 17.951852549999998,
          "longitude": -77.27192765048153
        },
        {
          "name": "Retreat",
          "code": "189767",
          "latitude": 17.8739202,
          "longitude": -76.3671935
        },
        {
          "name": "Retrieve",
          "code": "189768",
          "latitude": 18.1453828,
          "longitude": -76.8347955
        },
        {
          "name": "Richmond",
          "code": "189780",
          "latitude": 18.4384658,
          "longitude": -77.2480444
        },
        {
          "name": "Roberts Run",
          "code": "189800",
          "latitude": 17.951852549999998,
          "longitude": -77.27192765048153
        },
        {
          "name": "Robins Hall",
          "code": "189802",
          "latitude": 17.951852549999998,
          "longitude": -77.27192765048153
        },
        {
          "name": "Robinson Run",
          "code": "189804",
          "latitude": 17.951852549999998,
          "longitude": -77.27192765048153
        },
        {
          "name": "Rowes Corner",
          "code": "189833",
          "latitude": 17.951852549999998,
          "longitude": -77.27192765048153
        },
        {
          "name": "Roxborough",
          "code": "189836",
          "latitude": 17.9998598,
          "longitude": -76.7676106
        },
        {
          "name": "Royal Flat",
          "code": "189838",
          "latitude": 17.951852549999998,
          "longitude": -77.27192765048153
        },
        {
          "name": "Saint Pauls",
          "code": "189860",
          "latitude": 18.2751587,
          "longitude": -78.2386503
        },
        {
          "name": "Saint Toolies",
          "code": "189862",
          "latitude": 17.951852549999998,
          "longitude": -77.27192765048153
        },
        {
          "name": "Scotia",
          "code": "189895",
          "latitude": 18.2711269,
          "longitude": -77.0153189
        },
        {
          "name": "Sedburgh",
          "code": "189902",
          "latitude": 18.16041,
          "longitude": -77.4916256
        },
        {
          "name": "Seniors",
          "code": "189904",
          "latitude": 17.99280795,
          "longitude": -76.80534655
        },
        {
          "name": "Sherwood Forest",
          "code": "189920",
          "latitude": 18.1465859,
          "longitude": -76.3761378
        },
        {
          "name": "Shirehampton",
          "code": "189925",
          "latitude": 17.951852549999998,
          "longitude": -77.27192765048153
        },
        {
          "name": "Shooters Hill",
          "code": "189928",
          "latitude": 18.0879128,
          "longitude": -77.4771309
        },
        {
          "name": "Smithfield",
          "code": "189950",
          "latitude": 18.2130847,
          "longitude": -78.120236
        },
        {
          "name": "Snowdon",
          "code": "189953",
          "latitude": 17.9602949,
          "longitude": -77.5055092
        },
        {
          "name": "Soho",
          "code": "189956",
          "latitude": 17.9457578,
          "longitude": -76.4480853
        },
        {
          "name": "Somerset",
          "code": "189957",
          "latitude": 17.9801604,
          "longitude": -76.5328359
        },
        {
          "name": "Spitzbergen",
          "code": "189977",
          "latitude": 17.951852549999998,
          "longitude": -77.27192765048153
        },
        {
          "name": "Spur Tree",
          "code": "190006",
          "latitude": 17.9952742,
          "longitude": -77.5584214
        },
        {
          "name": "Stirling Castle",
          "code": "190024",
          "latitude": 17.9239444,
          "longitude": -76.3327074
        },
        {
          "name": "Stricklands",
          "code": "190033",
          "latitude": 17.951852549999998,
          "longitude": -77.27192765048153
        },
        {
          "name": "The Shambles",
          "code": "190070",
          "latitude": 17.951852549999998,
          "longitude": -77.27192765048153
        },
        {
          "name": "Thicket",
          "code": "190073",
          "latitude": 17.951852549999998,
          "longitude": -77.27192765048153
        },
        {
          "name": "Thorn Hill",
          "code": "190079",
          "latitude": 18.1510566,
          "longitude": -77.9836157
        },
        {
          "name": "Victoria Town",
          "code": "190146",
          "latitude": 17.916819,
          "longitude": -77.3816443
        },
        {
          "name": "Virginia",
          "code": "190149",
          "latitude": 37.7151407,
          "longitude": -76.6941246
        },
        {
          "name": "Walderston",
          "code": "190155",
          "latitude": 17.951852549999998,
          "longitude": -77.27192765048153
        },
        {
          "name": "Warwick",
          "code": "190163",
          "latitude": 18.3641381,
          "longitude": -77.0063925
        },
        {
          "name": "Westfield",
          "code": "190178",
          "latitude": 18.3523362,
          "longitude": -78.2543171
        },
        {
          "name": "Whitby",
          "code": "190186",
          "latitude": 18.212516,
          "longitude": -76.5853071
        },
        {
          "name": "Whitfield",
          "code": "190198",
          "latitude": 18.0486054,
          "longitude": -76.6181079
        },
        {
          "name": "Wigton",
          "code": "190205",
          "latitude": 18.0010743,
          "longitude": -76.814206
        },
        {
          "name": "Williamsfield",
          "code": "190212",
          "latitude": 18.32328,
          "longitude": -78.0637681
        },
        {
          "name": "Woodlands",
          "code": "190238",
          "latitude": 18.1737575,
          "longitude": -77.8824907
        },
        {
          "name": "York",
          "code": "190254",
          "latitude": 17.9339072,
          "longitude": -76.4531171
        }
      ]
    },
    {
      "name": "Portland",
      "code": "425",
      "latitude": 17.951852549999998,
      "longitude": -77.27192765048153,
      "cities": [
        {
          "name": "Albany",
          "code": "188254",
          "latitude": 18.2647208,
          "longitude": -78.2168103
        },
        {
          "name": "Altamont",
          "code": "188271",
          "latitude": 18.1926418,
          "longitude": -76.5692353
        },
        {
          "name": "Ashcott",
          "code": "188302",
          "latitude": 17.951852549999998,
          "longitude": -77.27192765048153
        },
        {
          "name": "Bagatelle",
          "code": "188318",
          "latitude": 17.951852549999998,
          "longitude": -77.27192765048153
        },
        {
          "name": "Balcarres",
          "code": "188322",
          "latitude": 18.1618984,
          "longitude": -76.7004705
        },
        {
          "name": "Bangor Ridge",
          "code": "188335",
          "latitude": 18.1664858,
          "longitude": -76.6841412
        },
        {
          "name": "Belle Castle",
          "code": "188366",
          "latitude": 17.998346,
          "longitude": -76.2677336
        },
        {
          "name": "Belvedere",
          "code": "188382",
          "latitude": 18.2515584,
          "longitude": -77.9246956
        },
        {
          "name": "Berridale",
          "code": "188393",
          "latitude": 18.1457489,
          "longitude": -76.4777274
        },
        {
          "name": "Bettys Hope",
          "code": "188404",
          "latitude": 17.951852549999998,
          "longitude": -77.27192765048153
        },
        {
          "name": "Biscany",
          "code": "188412",
          "latitude": 18.1172416,
          "longitude": -77.7551365
        },
        {
          "name": "Bloomfield",
          "code": "188421",
          "latitude": 17.9107142,
          "longitude": -76.5641499
        },
        {
          "name": "Boston",
          "code": "188451",
          "latitude": 18.1545583,
          "longitude": -76.3546801
        },
        {
          "name": "Breadfruit",
          "code": "188469",
          "latitude": 18.4418819,
          "longitude": -77.2351829
        },
        {
          "name": "Breastworks",
          "code": "188473",
          "latitude": 18.1637232,
          "longitude": -76.4456928
        },
        {
          "name": "Bryans Bay",
          "code": "188507",
          "latitude": 18.1841115,
          "longitude": -76.46554676989939
        },
        {
          "name": "Buff Bay",
          "code": "188515",
          "latitude": 18.2328871,
          "longitude": -76.6606215
        },
        {
          "name": "Burlington",
          "code": "188522",
          "latitude": 18.2002395,
          "longitude": -76.5005454
        },
        {
          "name": "Burton Hall",
          "code": "188526",
          "latitude": 18.1322304,
          "longitude": -76.5439368
        },
        {
          "name": "Bybrook",
          "code": "188532",
          "latitude": 18.1066466,
          "longitude": -77.0108664
        },
        {
          "name": "Cambridge",
          "code": "188550",
          "latitude": 18.3143249,
          "longitude": -77.9018444
        },
        {
          "name": "Canewood",
          "code": "188558",
          "latitude": 17.9479429,
          "longitude": -76.6888707
        },
        {
          "name": "Cascade",
          "code": "188574",
          "latitude": 18.3978306,
          "longitude": -78.1029616
        },
        {
          "name": "Castle Comfort",
          "code": "188578",
          "latitude": 18.0550089,
          "longitude": -76.4139462
        },
        {
          "name": "Castle Dawson",
          "code": "188579",
          "latitude": 18.1666489,
          "longitude": -76.6946125
        },
        {
          "name": "Cedar Valley",
          "code": "188595",
          "latitude": 18.1939385,
          "longitude": -78.0214073
        },
        {
          "name": "Charles Town",
          "code": "188604",
          "latitude": 18.212358,
          "longitude": -76.669904
        },
        {
          "name": "Chatsworth",
          "code": "188613",
          "latitude": 18.3649526,
          "longitude": -77.773118
        },
        {
          "name": "Chepstowe",
          "code": "188621",
          "latitude": 17.951852549999998,
          "longitude": -77.27192765048153
        },
        {
          "name": "Chipps Hall",
          "code": "188632",
          "latitude": 17.951852549999998,
          "longitude": -77.27192765048153
        },
        {
          "name": "Christianfield Village",
          "code": "188635",
          "latitude": 17.951852549999998,
          "longitude": -77.27192765048153
        },
        {
          "name": "Comfort Castle",
          "code": "188676",
          "latitude": 18.0550089,
          "longitude": -76.4139462
        },
        {
          "name": "Commodore",
          "code": "188682",
          "latitude": 18.136839,
          "longitude": -77.0204902
        },
        {
          "name": "Cornwall Barracks",
          "code": "188704",
          "latitude": 18.0682487,
          "longitude": -76.4206624
        },
        {
          "name": "Craig Mill",
          "code": "188719",
          "latitude": 17.951852549999998,
          "longitude": -77.27192765048153
        },
        {
          "name": "Cuffie Head",
          "code": "188734",
          "latitude": 18.1815112,
          "longitude": -76.5192819
        },
        {
          "name": "Darley",
          "code": "188746",
          "latitude": 18.1550885,
          "longitude": -76.5095401
        },
        {
          "name": "Dawson Castle",
          "code": "188754",
          "latitude": 18.1666489,
          "longitude": -76.6946125
        },
        {
          "name": "Dover",
          "code": "188778",
          "latitude": 18.2595937,
          "longitude": -76.7068864
        },
        {
          "name": "Drapers",
          "code": "188780",
          "latitude": 18.1757734,
          "longitude": -76.4106203
        },
        {
          "name": "Dunbar",
          "code": "188795",
          "latitude": 18.1635193,
          "longitude": -76.6261625
        },
        {
          "name": "Durham",
          "code": "188803",
          "latitude": 18.1340912,
          "longitude": -76.5263844
        },
        {
          "name": "Ecclesdown",
          "code": "188808",
          "latitude": 18.0578956,
          "longitude": -76.3354218
        },
        {
          "name": "Elgin Town",
          "code": "188823",
          "latitude": 18.4450833,
          "longitude": -78.1510037
        },
        {
          "name": "Fair Prospect",
          "code": "188857",
          "latitude": 18.1225643,
          "longitude": -76.3263345
        },
        {
          "name": "Fairfield",
          "code": "188861",
          "latitude": 18.1761902,
          "longitude": -76.6961897
        },
        {
          "name": "Fairy Hill",
          "code": "188864",
          "latitude": 18.1647527,
          "longitude": -76.3718784
        },
        {
          "name": "Fellowship",
          "code": "188872",
          "latitude": 18.1408356,
          "longitude": -76.4539004
        },
        {
          "name": "Flat Grass",
          "code": "188882",
          "latitude": 17.951852549999998,
          "longitude": -77.27192765048153
        },
        {
          "name": "Freefield",
          "code": "188912",
          "latitude": 18.207991,
          "longitude": -76.6962648
        },
        {
          "name": "Friendship",
          "code": "188928",
          "latitude": 18.1267856,
          "longitude": -77.278347
        },
        {
          "name": "Friendship Valley",
          "code": "188929",
          "latitude": 18.0667187,
          "longitude": -76.3392091
        },
        {
          "name": "Fruitful Vale",
          "code": "188932",
          "latitude": 18.1419521,
          "longitude": -76.5499677
        },
        {
          "name": "Garland Grove",
          "code": "188940",
          "latitude": 18.091676,
          "longitude": -76.4878464
        },
        {
          "name": "Ginger House",
          "code": "188958",
          "latitude": 18.0615983,
          "longitude": -76.4258337
        },
        {
          "name": "Golden Vale",
          "code": "188978",
          "latitude": 17.951852549999998,
          "longitude": -77.27192765048153
        },
        {
          "name": "Green Hills",
          "code": "189015",
          "latitude": 18.0894833,
          "longitude": -76.7153192
        },
        {
          "name": "Happy Grove",
          "code": "189075",
          "latitude": 18.008876,
          "longitude": -76.2686456
        },
        {
          "name": "Hart Hill",
          "code": "189090",
          "latitude": 18.2476317,
          "longitude": -76.6803625
        },
        {
          "name": "Hayfield",
          "code": "189098",
          "latitude": 17.9768911,
          "longitude": -76.3806331
        },
        {
          "name": "Hectors River",
          "code": "189106",
          "latitude": 17.9945144,
          "longitude": -76.2666982
        },
        {
          "name": "Hope Bay",
          "code": "189135",
          "latitude": 18.2022167,
          "longitude": -76.5637812
        },
        {
          "name": "Hopefield",
          "code": "189137",
          "latitude": 18.1956791,
          "longitude": -76.561693
        },
        {
          "name": "Hopeton",
          "code": "189139",
          "latitude": 17.9584853,
          "longitude": -77.6700139
        },
        {
          "name": "Industry",
          "code": "189164",
          "latitude": 18.163713,
          "longitude": -76.6122365
        },
        {
          "name": "Ipswich",
          "code": "189168",
          "latitude": 18.1976589,
          "longitude": -77.8241202
        },
        {
          "name": "Islington",
          "code": "189174",
          "latitude": 18.1292735,
          "longitude": -76.3480711
        },
        {
          "name": "Johns Hall",
          "code": "189197",
          "latitude": 17.951852549999998,
          "longitude": -77.27192765048153
        },
        {
          "name": "Kensington",
          "code": "189224",
          "latitude": 18.0710826,
          "longitude": -76.9390425
        },
        {
          "name": "Kew",
          "code": "189231",
          "latitude": 18.4390363,
          "longitude": -78.1531126
        },
        {
          "name": "Kildare",
          "code": "189236",
          "latitude": 18.2236243,
          "longitude": -76.6646576
        },
        {
          "name": "Lennox",
          "code": "189273",
          "latitude": 18.2042812,
          "longitude": -76.5927744
        },
        {
          "name": "Leyton Valley",
          "code": "189280",
          "latitude": 18.2176524,
          "longitude": -76.6235877
        },
        {
          "name": "Little Spring Garden",
          "code": "189305",
          "latitude": 18.1928659,
          "longitude": -76.5424347
        },
        {
          "name": "Long Bay",
          "code": "189321",
          "latitude": 18.1060022,
          "longitude": -76.3189878
        },
        {
          "name": "Low Leyton",
          "code": "189336",
          "latitude": 17.951852549999998,
          "longitude": -77.27192765048153
        },
        {
          "name": "Maidstone",
          "code": "189361",
          "latitude": 18.154278,
          "longitude": -76.5177959
        },
        {
          "name": "Manchioneal",
          "code": "189371",
          "latitude": 18.0368102,
          "longitude": -76.2799859
        },
        {
          "name": "Marlborough Castle",
          "code": "189381",
          "latitude": 17.951852549999998,
          "longitude": -77.27192765048153
        },
        {
          "name": "Melrose",
          "code": "189410",
          "latitude": 18.1723982,
          "longitude": -76.6206265
        },
        {
          "name": "Mid Leyton",
          "code": "189418",
          "latitude": 18.206768,
          "longitude": -76.6266132
        },
        {
          "name": "Millbank",
          "code": "189429",
          "latitude": 18.0395442,
          "longitude": -76.3983035
        },
        {
          "name": "Monmouth",
          "code": "189440",
          "latitude": 17.951852549999998,
          "longitude": -77.27192765048153
        },
        {
          "name": "Moore Town",
          "code": "189449",
          "latitude": 18.0768579,
          "longitude": -76.4276585
        },
        {
          "name": "Mount Pleasant",
          "code": "189491",
          "latitude": 18.2172274,
          "longitude": -78.0589559
        },
        {
          "name": "Mount Vernon",
          "code": "189502",
          "latitude": 18.2404789,
          "longitude": -76.6825104
        },
        {
          "name": "Mulleth Hall",
          "code": "189511",
          "latitude": 18.1573517,
          "longitude": -76.7049122
        },
        {
          "name": "New Bermuda",
          "code": "189522",
          "latitude": 17.951852549999998,
          "longitude": -77.27192765048153
        },
        {
          "name": "Nonsuch",
          "code": "189555",
          "latitude": 18.1533554,
          "longitude": -76.419096
        },
        {
          "name": "Norwich",
          "code": "189560",
          "latitude": 18.0102659,
          "longitude": -76.8161979
        },
        {
          "name": "Orange Bay",
          "code": "189583",
          "latitude": 18.2274862,
          "longitude": -76.6140154
        },
        {
          "name": "Peppingford",
          "code": "189645",
          "latitude": 17.951852549999998,
          "longitude": -77.27192765048153
        },
        {
          "name": "Pleasant Hill",
          "code": "189668",
          "latitude": 18.1886055,
          "longitude": -77.8710294
        },
        {
          "name": "Pleasing Prospect",
          "code": "189671",
          "latitude": 18.1717458,
          "longitude": -76.6799891
        },
        {
          "name": "Port Antonio",
          "code": "189680",
          "latitude": 18.175168,
          "longitude": -76.4474201
        },
        {
          "name": "Priestmans River",
          "code": "189696",
          "latitude": 18.1357378,
          "longitude": -76.33775
        },
        {
          "name": "Providence",
          "code": "189710",
          "latitude": 18.169544,
          "longitude": -76.8330145
        },
        {
          "name": "Reach",
          "code": "189730",
          "latitude": 18.0305794,
          "longitude": -76.3117493
        },
        {
          "name": "Rectory",
          "code": "189737",
          "latitude": 18.1810219,
          "longitude": -76.6698289
        },
        {
          "name": "Richmond",
          "code": "189779",
          "latitude": 18.4384658,
          "longitude": -77.2480444
        },
        {
          "name": "Richmond Hill",
          "code": "189781",
          "latitude": 18.2931823,
          "longitude": -77.8944826
        },
        {
          "name": "Rose Hill",
          "code": "189820",
          "latitude": 18.1906338,
          "longitude": -76.6733801
        },
        {
          "name": "Rural Vale",
          "code": "189842",
          "latitude": 17.951852549999998,
          "longitude": -77.27192765048153
        },
        {
          "name": "Saint Margarets Bay",
          "code": "189857",
          "latitude": 17.951852549999998,
          "longitude": -77.27192765048153
        },
        {
          "name": "Seamans Valley",
          "code": "189901",
          "latitude": 18.0901768,
          "longitude": -76.4438367
        },
        {
          "name": "Sherwood Forest",
          "code": "189922",
          "latitude": 18.1465859,
          "longitude": -76.3761378
        },
        {
          "name": "Shirley Castle",
          "code": "189926",
          "latitude": 17.9889327,
          "longitude": -76.549167
        },
        {
          "name": "Shirley Pen",
          "code": "189927",
          "latitude": 17.951852549999998,
          "longitude": -77.27192765048153
        },
        {
          "name": "Shotover",
          "code": "189929",
          "latitude": 18.1741541,
          "longitude": -76.4836594
        },
        {
          "name": "Shrewsbury",
          "code": "189932",
          "latitude": 18.2759766,
          "longitude": -78.0609527
        },
        {
          "name": "Silver Hill",
          "code": "189937",
          "latitude": 18.1447417,
          "longitude": -76.7182774
        },
        {
          "name": "Skibo",
          "code": "189941",
          "latitude": 18.1394287,
          "longitude": -76.5494085
        },
        {
          "name": "Smith Village",
          "code": "189946",
          "latitude": 17.951852549999998,
          "longitude": -77.27192765048153
        },
        {
          "name": "Smithfield",
          "code": "189948",
          "latitude": 18.2130847,
          "longitude": -78.120236
        },
        {
          "name": "Sommers Town",
          "code": "189963",
          "latitude": 18.1745851,
          "longitude": -76.4499532
        },
        {
          "name": "Spicy Grove",
          "code": "189975",
          "latitude": 18.3955582,
          "longitude": -76.9458819
        },
        {
          "name": "Spring Garden",
          "code": "189982",
          "latitude": 18.2228498,
          "longitude": -76.6353464
        },
        {
          "name": "Spring Hill",
          "code": "189987",
          "latitude": 18.1277033,
          "longitude": -76.7150509
        },
        {
          "name": "Spring Valley",
          "code": "189992",
          "latitude": 18.0360961,
          "longitude": -76.3069475
        },
        {
          "name": "Springfield",
          "code": "189999",
          "latitude": 18.4742363,
          "longitude": -77.6014137
        },
        {
          "name": "Stanton Harcourt",
          "code": "190012",
          "latitude": 18.1320265,
          "longitude": -76.4548767
        },
        {
          "name": "Starapple Grove",
          "code": "190013",
          "latitude": 18.1965454,
          "longitude": -76.6732943
        },
        {
          "name": "Stony Hill",
          "code": "190030",
          "latitude": 18.1809403,
          "longitude": -76.4788771
        },
        {
          "name": "Swift River",
          "code": "190049",
          "latitude": 17.867617,
          "longitude": -77.4069008
        },
        {
          "name": "Toms Hope",
          "code": "190092",
          "latitude": 18.1345143,
          "longitude": -76.4405322
        },
        {
          "name": "Tomsfield",
          "code": "190094",
          "latitude": 17.951852549999998,
          "longitude": -77.27192765048153
        },
        {
          "name": "Warsaw",
          "code": "190160",
          "latitude": 17.951852549999998,
          "longitude": -77.27192765048153
        },
        {
          "name": "Westfield",
          "code": "190179",
          "latitude": 18.3523362,
          "longitude": -78.2543171
        },
        {
          "name": "Whitehall",
          "code": "190194",
          "latitude": 17.9542395,
          "longitude": -76.4485574
        },
        {
          "name": "Whydaw",
          "code": "190203",
          "latitude": 17.951852549999998,
          "longitude": -77.27192765048153
        },
        {
          "name": "Williamsfield",
          "code": "190214",
          "latitude": 18.32328,
          "longitude": -78.0637681
        },
        {
          "name": "Windsor",
          "code": "190225",
          "latitude": 18.1110009,
          "longitude": -76.4512396
        },
        {
          "name": "Windsor Castle",
          "code": "190227",
          "latitude": 18.2593898,
          "longitude": -76.6968527
        },
        {
          "name": "Windsor Forest",
          "code": "190229",
          "latitude": 18.1124898,
          "longitude": -76.3387156
        },
        {
          "name": "Woodstock",
          "code": "190242",
          "latitude": 18.2327549,
          "longitude": -76.671921
        }
      ]
    },
    {
      "name": "Saint Andrew",
      "code": "426",
      "latitude": 17.951852549999998,
      "longitude": -77.27192765048153,
      "cities": [
        {
          "name": "Arcadia Club",
          "code": "188293",
          "latitude": 17.951852549999998,
          "longitude": -77.27192765048153
        },
        {
          "name": "August Town",
          "code": "188311",
          "latitude": 17.98914735,
          "longitude": -76.7369398678901
        },
        {
          "name": "Belvedere",
          "code": "188381",
          "latitude": 18.2515584,
          "longitude": -77.9246956
        },
        {
          "name": "Beredoes",
          "code": "188389",
          "latitude": 17.951852549999998,
          "longitude": -77.27192765048153
        },
        {
          "name": "Bideford",
          "code": "188409",
          "latitude": 17.9547907,
          "longitude": -77.7020502
        },
        {
          "name": "Billy Dun",
          "code": "188411",
          "latitude": 18.03852925,
          "longitude": -76.77028980830576
        },
        {
          "name": "Bloxburgh",
          "code": "188422",
          "latitude": 17.9842499,
          "longitude": -76.6590543
        },
        {
          "name": "Border",
          "code": "188447",
          "latitude": 18.1578717,
          "longitude": -76.867097
        },
        {
          "name": "Brandon Hill",
          "code": "188466",
          "latitude": 18.1519679,
          "longitude": -77.2500232
        },
        {
          "name": "Bull Bay",
          "code": "188516",
          "latitude": 17.9444836,
          "longitude": -76.6660524
        },
        {
          "name": "Cane River",
          "code": "188557",
          "latitude": 17.9742671,
          "longitude": -76.7013448
        },
        {
          "name": "Cassia Park",
          "code": "188577",
          "latitude": 18.0197953,
          "longitude": -76.8036532
        },
        {
          "name": "Castleton",
          "code": "188580",
          "latitude": 18.1736215,
          "longitude": -76.8207085
        },
        {
          "name": "Cavaliers",
          "code": "188585",
          "latitude": 18.090401,
          "longitude": -76.8278014
        },
        {
          "name": "Cedar Valley",
          "code": "188593",
          "latitude": 18.1939385,
          "longitude": -78.0214073
        },
        {
          "name": "Charlton",
          "code": "188606",
          "latitude": 18.0388154,
          "longitude": -77.5076352228164
        },
        {
          "name": "Cherry Garden",
          "code": "188623",
          "latitude": 51.4982501,
          "longitude": -0.0607916
        },
        {
          "name": "Chestervale",
          "code": "188629",
          "latitude": 18.0808042,
          "longitude": -76.680311
        },
        {
          "name": "Claremont",
          "code": "188640",
          "latitude": 18.3325728,
          "longitude": -77.1749067
        },
        {
          "name": "Clydesdale",
          "code": "188657",
          "latitude": 18.3007628,
          "longitude": -77.3330075
        },
        {
          "name": "Constant Spring",
          "code": "188687",
          "latitude": 18.1087677,
          "longitude": -76.4392555
        },
        {
          "name": "Constitution Hill",
          "code": "188688",
          "latitude": 18.0174465,
          "longitude": -76.7127657
        },
        {
          "name": "Content",
          "code": "188695",
          "latitude": 18.179307,
          "longitude": -77.9987088
        },
        {
          "name": "Craigton",
          "code": "188720",
          "latitude": 17.951852549999998,
          "longitude": -77.27192765048153
        },
        {
          "name": "Dallas Castle",
          "code": "188741",
          "latitude": 17.9906647,
          "longitude": -76.7232473
        },
        {
          "name": "Diamond",
          "code": "188765",
          "latitude": 18.0674531,
          "longitude": -76.8641496
        },
        {
          "name": "Dunrobin",
          "code": "188802",
          "latitude": 17.9811448,
          "longitude": -76.4663508
        },
        {
          "name": "Enfield",
          "code": "188839",
          "latitude": 18.2153161,
          "longitude": -77.9601186
        },
        {
          "name": "Fellowship Hall",
          "code": "188874",
          "latitude": 18.3724875,
          "longitude": -76.9884861
        },
        {
          "name": "Flamstead",
          "code": "188880",
          "latitude": 18.3280884,
          "longitude": -77.821312
        },
        {
          "name": "Fort George",
          "code": "188899",
          "latitude": 18.226498,
          "longitude": -76.769135
        },
        {
          "name": "Four Roads",
          "code": "188906",
          "latitude": 17.951852549999998,
          "longitude": -77.27192765048153
        },
        {
          "name": "Friendship",
          "code": "188924",
          "latitude": 18.1267856,
          "longitude": -77.278347
        },
        {
          "name": "Glebe Farm",
          "code": "188963",
          "latitude": 17.951852549999998,
          "longitude": -77.27192765048153
        },
        {
          "name": "Golden Spring",
          "code": "188977",
          "latitude": 18.0970307,
          "longitude": -76.8061781
        },
        {
          "name": "Good Hope",
          "code": "188983",
          "latitude": 18.4124979,
          "longitude": -77.6772881
        },
        {
          "name": "Gordon Town",
          "code": "188989",
          "latitude": 18.036453,
          "longitude": -76.7189455
        },
        {
          "name": "Greenwich",
          "code": "189033",
          "latitude": 18.1114509,
          "longitude": -77.0202873
        },
        {
          "name": "Guava Ridge",
          "code": "189044",
          "latitude": 18.0280162,
          "longitude": -76.6768241
        },
        {
          "name": "Halberstadt",
          "code": "189054",
          "latitude": 17.951852549999998,
          "longitude": -77.27192765048153
        },
        {
          "name": "Halls Delight",
          "code": "189058",
          "latitude": 18.1432826,
          "longitude": -76.6498948
        },
        {
          "name": "Happy Grove",
          "code": "189074",
          "latitude": 18.008876,
          "longitude": -76.2686456
        },
        {
          "name": "Harbour View",
          "code": "189078",
          "latitude": 17.9556096,
          "longitude": -76.7198914
        },
        {
          "name": "Hope",
          "code": "189133",
          "latitude": 18.47229325,
          "longitude": -77.92265182256274
        },
        {
          "name": "Hopewell",
          "code": "189145",
          "latitude": 18.4568429,
          "longitude": -78.0119125
        },
        {
          "name": "Irish Town",
          "code": "189170",
          "latitude": 18.0504014,
          "longitude": -76.72607501773301
        },
        {
          "name": "Jacks Hill",
          "code": "189182",
          "latitude": 18.050031,
          "longitude": -76.7566252
        },
        {
          "name": "Kingston",
          "code": "189241",
          "latitude": 17.9712148,
          "longitude": -76.7928128
        },
        {
          "name": "Kirklands",
          "code": "189245",
          "latitude": 17.951852549999998,
          "longitude": -77.27192765048153
        },
        {
          "name": "Lawrence Tavern",
          "code": "189266",
          "latitude": 18.1277214,
          "longitude": -76.8454603
        },
        {
          "name": "Lebanon",
          "code": "189268",
          "latitude": 18.3095209,
          "longitude": -76.8591392
        },
        {
          "name": "Lindos Gap",
          "code": "189292",
          "latitude": 17.9958256,
          "longitude": -76.715802
        },
        {
          "name": "Mary Browns Corner",
          "code": "189391",
          "latitude": 17.951852549999998,
          "longitude": -77.27192765048153
        },
        {
          "name": "Mason Valley",
          "code": "189399",
          "latitude": 17.951852549999998,
          "longitude": -77.27192765048153
        },
        {
          "name": "Matildas Corner",
          "code": "189401",
          "latitude": 17.951852549999998,
          "longitude": -77.27192765048153
        },
        {
          "name": "Maverty",
          "code": "189402",
          "latitude": 17.951852549999998,
          "longitude": -77.27192765048153
        },
        {
          "name": "Mavis Bank",
          "code": "189403",
          "latitude": 18.0295057,
          "longitude": -76.6583499
        },
        {
          "name": "Middleton",
          "code": "189423",
          "latitude": 17.9389356,
          "longitude": -76.4350088
        },
        {
          "name": "Mocho House",
          "code": "189438",
          "latitude": 17.951852549999998,
          "longitude": -77.27192765048153
        },
        {
          "name": "Mount Belmore",
          "code": "189463",
          "latitude": 17.951852549999998,
          "longitude": -77.27192765048153
        },
        {
          "name": "Mount Charles",
          "code": "189467",
          "latitude": 18.152081,
          "longitude": -76.8624652
        },
        {
          "name": "Mount Dispute",
          "code": "189469",
          "latitude": 17.951852549999998,
          "longitude": -77.27192765048153
        },
        {
          "name": "Mount James",
          "code": "189475",
          "latitude": 18.1177106,
          "longitude": -76.7865157
        },
        {
          "name": "Mount Moses",
          "code": "189480",
          "latitude": 18.1026823,
          "longitude": -76.7738047
        },
        {
          "name": "Mount Pelier",
          "code": "189486",
          "latitude": 17.951852549999998,
          "longitude": -77.27192765048153
        },
        {
          "name": "Mount Pleasant",
          "code": "189495",
          "latitude": 18.2172274,
          "longitude": -78.0589559
        },
        {
          "name": "Newcastle",
          "code": "189540",
          "latitude": 18.0729609,
          "longitude": -76.7128515
        },
        {
          "name": "Newstead",
          "code": "189548",
          "latitude": 18.3739842,
          "longitude": -77.0457566
        },
        {
          "name": "Niger Corner",
          "code": "189550",
          "latitude": 17.951852549999998,
          "longitude": -77.27192765048153
        },
        {
          "name": "Oberlin",
          "code": "189564",
          "latitude": 17.951852549999998,
          "longitude": -77.27192765048153
        },
        {
          "name": "Palm Beach",
          "code": "189606",
          "latitude": 17.9430376,
          "longitude": -76.6912437
        },
        {
          "name": "Papine",
          "code": "189612",
          "latitude": 18.01680585,
          "longitude": -76.74223892560491
        },
        {
          "name": "Parks Road",
          "code": "189619",
          "latitude": 18.0947049,
          "longitude": -76.8664885
        },
        {
          "name": "Pembroke Hall",
          "code": "189639",
          "latitude": 17.9105508,
          "longitude": -76.4072836
        },
        {
          "name": "Pleasant Hill",
          "code": "189667",
          "latitude": 18.1886055,
          "longitude": -77.8710294
        },
        {
          "name": "Red Hills",
          "code": "189740",
          "latitude": 18.0516538,
          "longitude": -76.8432584
        },
        {
          "name": "Resource",
          "code": "189752",
          "latitude": 18.0627203,
          "longitude": -76.6679621
        },
        {
          "name": "Rockingham",
          "code": "189811",
          "latitude": 17.9776548,
          "longitude": -76.7566223
        },
        {
          "name": "Saint Christopher",
          "code": "189848",
          "latitude": 18.0958165,
          "longitude": -76.8353105
        },
        {
          "name": "Saint Peters",
          "code": "189861",
          "latitude": 17.951852549999998,
          "longitude": -77.27192765048153
        },
        {
          "name": "Salisbury",
          "code": "189867",
          "latitude": 18.0243355,
          "longitude": -77.5130356
        },
        {
          "name": "Seven Mile",
          "code": "189908",
          "latitude": 17.9482585,
          "longitude": -76.6990328
        },
        {
          "name": "Slanmore",
          "code": "189943",
          "latitude": 17.951852549999998,
          "longitude": -77.27192765048153
        },
        {
          "name": "Smiths Pen",
          "code": "189951",
          "latitude": 17.951852549999998,
          "longitude": -77.27192765048153
        },
        {
          "name": "Somerset",
          "code": "189958",
          "latitude": 17.9801604,
          "longitude": -76.5328359
        },
        {
          "name": "Spa Spring",
          "code": "189969",
          "latitude": 17.951852549999998,
          "longitude": -77.27192765048153
        },
        {
          "name": "Stirling Castle",
          "code": "190022",
          "latitude": 17.9239444,
          "longitude": -76.3327074
        },
        {
          "name": "Stony Hill",
          "code": "190031",
          "latitude": 18.1809403,
          "longitude": -76.4788771
        },
        {
          "name": "Swallowfield",
          "code": "190046",
          "latitude": 18.0024453,
          "longitude": -76.7788473
        },
        {
          "name": "The Cooperage",
          "code": "190064",
          "latitude": 18.0329333,
          "longitude": -76.7330965
        },
        {
          "name": "Toms River",
          "code": "190093",
          "latitude": 18.147432,
          "longitude": -76.8506527
        },
        {
          "name": "Tower Hill",
          "code": "190100",
          "latitude": 17.9869607,
          "longitude": -76.719667
        },
        {
          "name": "Tree Grove",
          "code": "190109",
          "latitude": 17.951852549999998,
          "longitude": -77.27192765048153
        },
        {
          "name": "Tumbridge",
          "code": "190125",
          "latitude": 17.951852549999998,
          "longitude": -77.27192765048153
        },
        {
          "name": "Unity",
          "code": "190136",
          "latitude": 18.1406419,
          "longitude": -76.8555451
        },
        {
          "name": "Waterhouse Pen",
          "code": "190169",
          "latitude": 17.951852549999998,
          "longitude": -77.27192765048153
        }
      ]
    },
    {
      "name": "Saint Ann",
      "code": "427",
      "latitude": 17.951852549999998,
      "longitude": -77.27192765048153,
      "cities": [
        {
          "name": "Aberdeen",
          "code": "188238",
          "latitude": 57.1577932,
          "longitude": -2.1116918
        },
        {
          "name": "Aberly",
          "code": "188239",
          "latitude": 17.951852549999998,
          "longitude": -77.27192765048153
        },
        {
          "name": "Aboukir",
          "code": "188241",
          "latitude": 18.2571196,
          "longitude": -77.3652155
        },
        {
          "name": "Aenon Town",
          "code": "188248",
          "latitude": 18.2136779,
          "longitude": -77.3948193
        },
        {
          "name": "Alderton",
          "code": "188259",
          "latitude": 18.2998056,
          "longitude": -77.2037682
        },
        {
          "name": "Alexandria",
          "code": "188262",
          "latitude": 18.308056,
          "longitude": -77.3536927
        },
        {
          "name": "Allen Hall",
          "code": "188264",
          "latitude": 17.951852549999998,
          "longitude": -77.27192765048153
        },
        {
          "name": "Andersons Town",
          "code": "188281",
          "latitude": 18.2228209,
          "longitude": -77.3636491
        },
        {
          "name": "Annandale",
          "code": "188284",
          "latitude": 18.3629569,
          "longitude": -77.1484852
        },
        {
          "name": "Antrim",
          "code": "188287",
          "latitude": 17.9898626,
          "longitude": -76.7753244
        },
        {
          "name": "Ardoch",
          "code": "188294",
          "latitude": 17.951852549999998,
          "longitude": -77.27192765048153
        },
        {
          "name": "Armadale",
          "code": "188296",
          "latitude": -32.1268338,
          "longitude": 115.9272401
        },
        {
          "name": "Arthurs Mount",
          "code": "188299",
          "latitude": 17.951852549999998,
          "longitude": -77.27192765048153
        },
        {
          "name": "Arthurs Seat",
          "code": "188300",
          "latitude": 17.951852549999998,
          "longitude": -77.27192765048153
        },
        {
          "name": "Bachelors Hall",
          "code": "188315",
          "latitude": 17.9506979,
          "longitude": -76.3169253
        },
        {
          "name": "Bad Times",
          "code": "188317",
          "latitude": 17.951852549999998,
          "longitude": -77.27192765048153
        },
        {
          "name": "Ballintoy",
          "code": "188325",
          "latitude": 17.951852549999998,
          "longitude": -77.27192765048153
        },
        {
          "name": "Bally Mony",
          "code": "188326",
          "latitude": 17.951852549999998,
          "longitude": -77.27192765048153
        },
        {
          "name": "Bamboo",
          "code": "188328",
          "latitude": 18.3911824,
          "longitude": -77.2663689
        },
        {
          "name": "Banks",
          "code": "188337",
          "latitude": 18.4049451,
          "longitude": -77.2595504
        },
        {
          "name": "Barrett Hall Village",
          "code": "188347",
          "latitude": 17.951852549999998,
          "longitude": -77.27192765048153
        },
        {
          "name": "Beecher Town",
          "code": "188357",
          "latitude": 18.3666226,
          "longitude": -77.1094752
        },
        {
          "name": "Belle Air Summit",
          "code": "188365",
          "latitude": 17.951852549999998,
          "longitude": -77.27192765048153
        },
        {
          "name": "Bellevue",
          "code": "188371",
          "latitude": 18.0179668,
          "longitude": -76.6826391
        },
        {
          "name": "Belmont",
          "code": "188377",
          "latitude": 18.1537142,
          "longitude": -78.0284161
        },
        {
          "name": "Bengal",
          "code": "188386",
          "latitude": 22.9567458,
          "longitude": 88.4031494
        },
        {
          "name": "Bennetsfield",
          "code": "188387",
          "latitude": 17.951852549999998,
          "longitude": -77.27192765048153
        },
        {
          "name": "Bensonton",
          "code": "188388",
          "latitude": 17.951852549999998,
          "longitude": -77.27192765048153
        },
        {
          "name": "Berrydale",
          "code": "188395",
          "latitude": 17.9853374,
          "longitude": -76.8701563
        },
        {
          "name": "Bethany",
          "code": "188399",
          "latitude": 18.311458,
          "longitude": -77.3709876
        },
        {
          "name": "Beverly",
          "code": "188405",
          "latitude": 18.2286177,
          "longitude": -76.8232298
        },
        {
          "name": "Blackheath",
          "code": "188416",
          "latitude": 18.31383,
          "longitude": -78.1143953
        },
        {
          "name": "Blackstone Edge",
          "code": "188417",
          "latitude": 17.951852549999998,
          "longitude": -77.27192765048153
        },
        {
          "name": "Blue Hole",
          "code": "188426",
          "latitude": 18.1706245,
          "longitude": -76.3875425
        },
        {
          "name": "Bluefields",
          "code": "188431",
          "latitude": 18.1665035,
          "longitude": -78.0230925
        },
        {
          "name": "Bog",
          "code": "188435",
          "latitude": 18.1479016,
          "longitude": -77.9475405
        },
        {
          "name": "Bohemia",
          "code": "188440",
          "latitude": 18.2153624,
          "longitude": -77.4739861
        },
        {
          "name": "Bolton Park",
          "code": "188442",
          "latitude": 17.951852549999998,
          "longitude": -77.27192765048153
        },
        {
          "name": "Breadnut Hill",
          "code": "188472",
          "latitude": 18.2003165,
          "longitude": -77.8406561
        },
        {
          "name": "Breezy Hill",
          "code": "188474",
          "latitude": 17.951852549999998,
          "longitude": -77.27192765048153
        },
        {
          "name": "Breezy Park",
          "code": "188475",
          "latitude": 17.951852549999998,
          "longitude": -77.27192765048153
        },
        {
          "name": "Brissett Run",
          "code": "188483",
          "latitude": 17.951852549999998,
          "longitude": -77.27192765048153
        },
        {
          "name": "Brittonville",
          "code": "188486",
          "latitude": 17.951852549999998,
          "longitude": -77.27192765048153
        },
        {
          "name": "Broadstreet",
          "code": "188490",
          "latitude": 17.951852549999998,
          "longitude": -77.27192765048153
        },
        {
          "name": "Bromley",
          "code": "188493",
          "latitude": 18.3171294,
          "longitude": -77.0894873
        },
        {
          "name": "Browns Town",
          "code": "188500",
          "latitude": 17.9950478,
          "longitude": -76.9202286
        },
        {
          "name": "Browns Valley",
          "code": "188501",
          "latitude": 18.2965461,
          "longitude": -77.198
        },
        {
          "name": "Brunswick",
          "code": "188504",
          "latitude": 18.0001694,
          "longitude": -76.9596337
        },
        {
          "name": "Buckfield",
          "code": "188511",
          "latitude": 18.4099428,
          "longitude": -77.1022895
        },
        {
          "name": "Burts Run",
          "code": "188527",
          "latitude": 17.951852549999998,
          "longitude": -77.27192765048153
        },
        {
          "name": "Cairnie",
          "code": "188538",
          "latitude": 17.951852549999998,
          "longitude": -77.27192765048153
        },
        {
          "name": "Calderwood Glen",
          "code": "188539",
          "latitude": 17.951852549999998,
          "longitude": -77.27192765048153
        },
        {
          "name": "Caledonia",
          "code": "188542",
          "latitude": 18.3140961,
          "longitude": -77.4317557
        },
        {
          "name": "Cambrook",
          "code": "188553",
          "latitude": 18.1744573,
          "longitude": -77.7989316
        },
        {
          "name": "Camperdown",
          "code": "188556",
          "latitude": 18.1580449,
          "longitude": -77.0174217
        },
        {
          "name": "Cardiff Hall",
          "code": "188560",
          "latitude": 18.4630751,
          "longitude": -77.3266229
        },
        {
          "name": "Carton",
          "code": "188570",
          "latitude": 18.3507781,
          "longitude": -77.1800816
        },
        {
          "name": "Cascade",
          "code": "188573",
          "latitude": 18.3978306,
          "longitude": -78.1029616
        },
        {
          "name": "Cave Hill",
          "code": "188587",
          "latitude": 17.951852549999998,
          "longitude": -77.27192765048153
        },
        {
          "name": "Cave Valley",
          "code": "188589",
          "latitude": 18.324259,
          "longitude": -78.2711936
        },
        {
          "name": "Cedar Valley",
          "code": "188596",
          "latitude": 18.1939385,
          "longitude": -78.0214073
        },
        {
          "name": "Chalky Hill",
          "code": "188598",
          "latitude": 18.4060643,
          "longitude": -77.1652651
        },
        {
          "name": "Charlton",
          "code": "188608",
          "latitude": 18.0388154,
          "longitude": -77.5076352228164
        },
        {
          "name": "Charlton Castle",
          "code": "188609",
          "latitude": 17.951852549999998,
          "longitude": -77.27192765048153
        },
        {
          "name": "Chesterfield",
          "code": "188626",
          "latitude": 18.2357814,
          "longitude": -77.8766835
        },
        {
          "name": "Claremont",
          "code": "188642",
          "latitude": 18.3325728,
          "longitude": -77.1749067
        },
        {
          "name": "Clarks Town",
          "code": "188646",
          "latitude": 18.0618246,
          "longitude": -77.5133521
        },
        {
          "name": "Clarksonville",
          "code": "188648",
          "latitude": 18.2445259,
          "longitude": -77.3643572
        },
        {
          "name": "Clifton",
          "code": "188652",
          "latitude": 18.2411619,
          "longitude": -77.9830954
        },
        {
          "name": "Clover Hill",
          "code": "188656",
          "latitude": 18.2772212,
          "longitude": -77.1379731
        },
        {
          "name": "Clydesdale",
          "code": "188658",
          "latitude": 18.3007628,
          "longitude": -77.3330075
        },
        {
          "name": "Concord",
          "code": "188683",
          "latitude": 18.1398161,
          "longitude": -76.8864334
        },
        {
          "name": "Content",
          "code": "188690",
          "latitude": 18.179307,
          "longitude": -77.9987088
        },
        {
          "name": "Coultant Grove",
          "code": "188713",
          "latitude": 17.951852549999998,
          "longitude": -77.27192765048153
        },
        {
          "name": "Crescent Park",
          "code": "188726",
          "latitude": 18.3542812,
          "longitude": -76.9561816
        },
        {
          "name": "Cyprus",
          "code": "188740",
          "latitude": 18.0515115,
          "longitude": -76.8590961
        },
        {
          "name": "Darlington",
          "code": "188747",
          "latitude": 18.0456445,
          "longitude": -77.5037813
        },
        {
          "name": "Davis Town",
          "code": "188750",
          "latitude": 18.4942613,
          "longitude": -77.7215553
        },
        {
          "name": "Defiance",
          "code": "188760",
          "latitude": 17.951852549999998,
          "longitude": -77.27192765048153
        },
        {
          "name": "Devon",
          "code": "188764",
          "latitude": 18.1678263,
          "longitude": -77.5319177
        },
        {
          "name": "Discovery Bay",
          "code": "188768",
          "latitude": 18.4619125,
          "longitude": -77.3968127
        },
        {
          "name": "Doncaster",
          "code": "188770",
          "latitude": 17.96762965,
          "longitude": -76.76586576335754
        },
        {
          "name": "Doone Lodge",
          "code": "188772",
          "latitude": 17.951852549999998,
          "longitude": -77.27192765048153
        },
        {
          "name": "Dorothy Pen",
          "code": "188774",
          "latitude": 17.951852549999998,
          "longitude": -77.27192765048153
        },
        {
          "name": "Dry Harbour Cave",
          "code": "188785",
          "latitude": 17.951852549999998,
          "longitude": -77.27192765048153
        },
        {
          "name": "Dublin Castle",
          "code": "188789",
          "latitude": 18.0285348,
          "longitude": -76.6992612
        },
        {
          "name": "Eden Bowers",
          "code": "188813",
          "latitude": 17.951852549999998,
          "longitude": -77.27192765048153
        },
        {
          "name": "Egypt",
          "code": "188820",
          "latitude": 18.2765468,
          "longitude": -76.8423272
        },
        {
          "name": "Eltham",
          "code": "188829",
          "latitude": 18.390904,
          "longitude": -77.06881076831668
        },
        {
          "name": "Endeavour",
          "code": "188834",
          "latitude": 18.3528995,
          "longitude": -77.426859
        },
        {
          "name": "Enfield",
          "code": "188836",
          "latitude": 18.2153161,
          "longitude": -77.9601186
        },
        {
          "name": "Epworth",
          "code": "188845",
          "latitude": 18.3733631,
          "longitude": -77.1403098
        },
        {
          "name": "Essex",
          "code": "188849",
          "latitude": 17.9916113,
          "longitude": -76.3438279
        },
        {
          "name": "Essling",
          "code": "188850",
          "latitude": 17.951852549999998,
          "longitude": -77.27192765048153
        },
        {
          "name": "Exchange",
          "code": "188855",
          "latitude": 18.39551935,
          "longitude": -77.05560253045041
        },
        {
          "name": "Flat Point",
          "code": "188883",
          "latitude": 18.4730457,
          "longitude": -77.3120677
        },
        {
          "name": "Folly",
          "code": "188889",
          "latitude": 18.1851908,
          "longitude": -76.4398885
        },
        {
          "name": "Forest",
          "code": "188896",
          "latitude": 33.4774692,
          "longitude": -82.0789136
        },
        {
          "name": "Freefield",
          "code": "188911",
          "latitude": 18.207991,
          "longitude": -76.6962648
        },
        {
          "name": "French Land",
          "code": "188914",
          "latitude": 17.951852549999998,
          "longitude": -77.27192765048153
        },
        {
          "name": "Friendship",
          "code": "188922",
          "latitude": 17.9415832,
          "longitude": -76.368134
        },
        {
          "name": "Gibraltar",
          "code": "188954",
          "latitude": 18.337139,
          "longitude": -77.4300605
        },
        {
          "name": "Gloster",
          "code": "188968",
          "latitude": 51.864337,
          "longitude": -2.2440673
        },
        {
          "name": "Golden",
          "code": "188972",
          "latitude": 43.6972812,
          "longitude": -79.4427602
        },
        {
          "name": "Golden Grove",
          "code": "188975",
          "latitude": 17.9278371,
          "longitude": -76.27363891294787
        },
        {
          "name": "Good Design",
          "code": "188980",
          "latitude": 18.3939039,
          "longitude": -77.5416917
        },
        {
          "name": "Goshen",
          "code": "188992",
          "latitude": 18.308594,
          "longitude": -77.0252323
        },
        {
          "name": "Grand Cairo",
          "code": "188997",
          "latitude": 17.951852549999998,
          "longitude": -77.27192765048153
        },
        {
          "name": "Great Pond",
          "code": "189008",
          "latitude": 18.3995133,
          "longitude": -77.0826799
        },
        {
          "name": "Green Castle",
          "code": "189013",
          "latitude": 18.3036844,
          "longitude": -76.8016005
        },
        {
          "name": "Green Hill",
          "code": "189014",
          "latitude": 18.0999059,
          "longitude": -76.7160165
        },
        {
          "name": "Green Park",
          "code": "189019",
          "latitude": 18.4642737,
          "longitude": -77.702415
        },
        {
          "name": "Green Walk",
          "code": "189025",
          "latitude": 17.951852549999998,
          "longitude": -77.27192765048153
        },
        {
          "name": "Grier Park",
          "code": "189037",
          "latitude": 17.951852549999998,
          "longitude": -77.27192765048153
        },
        {
          "name": "Grierfield",
          "code": "189038",
          "latitude": 18.2711371,
          "longitude": -77.1374774
        },
        {
          "name": "Haddon",
          "code": "189052",
          "latitude": 17.951852549999998,
          "longitude": -77.27192765048153
        },
        {
          "name": "Hallsfield",
          "code": "189059",
          "latitude": 17.951852549999998,
          "longitude": -77.27192765048153
        },
        {
          "name": "Hampton",
          "code": "189066",
          "latitude": 18.3836058,
          "longitude": -77.8640557
        },
        {
          "name": "Happy Retreat",
          "code": "189076",
          "latitude": 18.3790038,
          "longitude": -77.0885325
        },
        {
          "name": "Harmony Hill",
          "code": "189087",
          "latitude": 18.3513604,
          "longitude": -77.1062954
        },
        {
          "name": "Harmony Vale",
          "code": "189088",
          "latitude": 17.951852549999998,
          "longitude": -77.27192765048153
        },